Postal Code,Place Name,State,State Abbreviation,City,Latitude,Longitude,Population State Level,male,female,Area,Inhabitants/km?
1945,Kroppen,Brandenburg,BB,Oberspreewald-Lausitz,51.3833,13.8,2484826,1228283,1256543,29654.36,84
1968,Schipkau,Brandenburg,BB,Oberspreewald-Lausitz,51.5456,13.9121,2484826,1228283,1256543,29654.36,84
1979,Lauchhammer,Brandenburg,BB,Oberspreewald-Lausitz,51.5,13.7667,2484826,1228283,1256543,29654.36,84
1983,Gro??chen,Brandenburg,BB,Oberspreewald-Lausitz,51.5833,14,2484826,1228283,1256543,29654.36,84
1987,Schwarzheide,Brandenburg,BB,Oberspreewald-Lausitz,51.4653,13.868,2484826,1228283,1256543,29654.36,84
1990,Ortrand,Brandenburg,BB,Oberspreewald-Lausitz,51.3767,13.745,2484826,1228283,1256543,29654.36,84
1993,Schipkau Schipkau,Brandenburg,BB,Oberspreewald-Lausitz,51.5101,13.8981,2484826,1228283,1256543,29654.36,84
1994,Schipkau Drochow,Brandenburg,BB,Oberspreewald-Lausitz,51.5693,13.9237,2484826,1228283,1256543,29654.36,84
1996,Hosena,Brandenburg,BB,Oberspreewald-Lausitz,51.4534,14.0298,2484826,1228283,1256543,29654.36,84
1998,Schipkau Klettwitz,Brandenburg,BB,Oberspreewald-Lausitz,51.5422,13.8994,2484826,1228283,1256543,29654.36,84
3042,Cottbus,Brandenburg,BB,"Cottbus, Stadt",51.7612,14.3544,2484826,1228283,1256543,29654.36,84
3044,Cottbus,Brandenburg,BB,"Cottbus, Stadt",51.7754,14.3374,2484826,1228283,1256543,29654.36,84
3046,Cottbus,Brandenburg,BB,"Cottbus, Stadt",51.756,14.3197,2484826,1228283,1256543,29654.36,84
3048,Cottbus,Brandenburg,BB,"Cottbus, Stadt",51.7402,14.3198,2484826,1228283,1256543,29654.36,84
3050,Cottbus,Brandenburg,BB,"Cottbus, Stadt",51.7324,14.3348,2484826,1228283,1256543,29654.36,84
3051,Cottbus,Brandenburg,BB,"Cottbus, Stadt",51.7667,14.3333,2484826,1228283,1256543,29654.36,84
3052,Cottbus,Brandenburg,BB,"Cottbus, Stadt",51.7667,14.3333,2484826,1228283,1256543,29654.36,84
3053,Cottbus,Brandenburg,BB,"Cottbus, Stadt",51.7667,14.3333,2484826,1228283,1256543,29654.36,84
3054,Cottbus,Brandenburg,BB,"Cottbus, Stadt",51.7667,14.3333,2484826,1228283,1256543,29654.36,84
3055,Cottbus,Brandenburg,BB,"Cottbus, Stadt",51.7667,14.3333,2484826,1228283,1256543,29654.36,84
3058,Kiekebusch,Brandenburg,BB,Spree-Nei?,51.7167,14.3667,2484826,1228283,1256543,29654.36,84
3096,Werben,Brandenburg,BB,Spree-Nei?,51.8167,14.1833,2484826,1228283,1256543,29654.36,84
3099,Kolkwitz,Brandenburg,BB,Spree-Nei?,51.75,14.25,2484826,1228283,1256543,29654.36,84
3103,Neu-Seeland,Brandenburg,BB,Oberspreewald-Lausitz,51.6214,14.1309,2484826,1228283,1256543,29654.36,84
3116,Drebkau,Brandenburg,BB,Spree-Nei?,51.65,14.2167,2484826,1228283,1256543,29654.36,84
3119,Welzow,Brandenburg,BB,Spree-Nei?,51.5667,14.1833,2484826,1228283,1256543,29654.36,84
3130,Hornow-Wadelsdorf,Brandenburg,BB,Spree-Nei?,51.625,14.4917,2484826,1228283,1256543,29654.36,84
3139,Terpe,Brandenburg,BB,Spree-Nei?,51.5667,14.3667,2484826,1228283,1256543,29654.36,84
3149,Forst (Lausitz),Brandenburg,BB,Spree-Nei?,51.7302,14.598,2484826,1228283,1256543,29654.36,84
3159,Nei?-Malxetal,Brandenburg,BB,Spree-Nei?,51.6433,14.63,2484826,1228283,1256543,29654.36,84
3172,Atterwasch,Brandenburg,BB,Spree-Nei?,51.9333,14.6333,2484826,1228283,1256543,29654.36,84
3185,Heinersbr?k,Brandenburg,BB,Spree-Nei?,51.8333,14.5,2484826,1228283,1256543,29654.36,84
3197,J?schwalde,Brandenburg,BB,Spree-Nei?,51.8667,14.5,2484826,1228283,1256543,29654.36,84
3202,Luckow-Petershagen,Brandenburg,BB,Uckermark,53.2435,14.2573,2484826,1228283,1256543,29654.36,84
3205,Kemmen,Brandenburg,BB,Oberspreewald-Lausitz,51.7333,13.9167,2484826,1228283,1256543,29654.36,84
3222,L?benau/Spreewald,Brandenburg,BB,Oberspreewald-Lausitz,51.8626,13.9613,2484826,1228283,1256543,29654.36,84
3226,Ko?ig,Brandenburg,BB,Oberspreewald-Lausitz,51.7833,14.0333,2484826,1228283,1256543,29654.36,84
3229,Altd?ern,Brandenburg,BB,Oberspreewald-Lausitz,51.65,14.0333,2484826,1228283,1256543,29654.36,84
3238,Gruhno,Brandenburg,BB,Elbe-Elster,51.5667,13.5167,2484826,1228283,1256543,29654.36,84
3246,Babben,Brandenburg,BB,Elbe-Elster,51.7167,13.7833,2484826,1228283,1256543,29654.36,84
3249,Kleinkrausnik,Brandenburg,BB,Elbe-Elster,51.7333,13.6,2484826,1228283,1256543,29654.36,84
3253,Arenzhain,Brandenburg,BB,Elbe-Elster,51.6667,13.5167,2484826,1228283,1256543,29654.36,84
4895,Falkenberg/Elster,Brandenburg,BB,Elbe-Elster,51.5875,13.2364,2484826,1228283,1256543,29654.36,84
4910,Elsterwerda,Brandenburg,BB,Elbe-Elster,51.4768,13.5022,2484826,1228283,1256543,29654.36,84
4916,Heideeck,Brandenburg,BB,Elbe-Elster,51.8333,13.2,2484826,1228283,1256543,29654.36,84
4924,Bad Liebenwerda,Brandenburg,BB,Elbe-Elster,51.489,13.3901,2484826,1228283,1256543,29654.36,84
4928,Kahla,Brandenburg,BB,Elbe-Elster,51.4667,13.5667,2484826,1228283,1256543,29654.36,84
4931,M?lberg (Elbe),Brandenburg,BB,Elbe-Elster,51.4333,13.2167,2484826,1228283,1256543,29654.36,84
4932,Gro?hiemig,Brandenburg,BB,Elbe-Elster,51.3833,13.6667,2484826,1228283,1256543,29654.36,84
4934,Hohenleipisch,Brandenburg,BB,Elbe-Elster,51.5,13.55,2484826,1228283,1256543,29654.36,84
4936,Hohenbucko,Brandenburg,BB,Elbe-Elster,51.7667,13.4667,2484826,1228283,1256543,29654.36,84
4938,Uebigau-Wahrenbr?k,Brandenburg,BB,Elbe-Elster,51.5167,13.3333,2484826,1228283,1256543,29654.36,84
12529,Berlin,Brandenburg,BB,Dahme-Spreewald,52.5167,13.4,2484826,1228283,1256543,29654.36,84
14461,Potsdam,Brandenburg,BB,"Potsdam, Stadt",52.4,13.0667,2484826,1228283,1256543,29654.36,84
14467,Potsdam,Brandenburg,BB,"Potsdam, Stadt",52.403,13.0626,2484826,1228283,1256543,29654.36,84
14469,Potsdam,Brandenburg,BB,"Potsdam, Stadt",52.4091,12.9899,2484826,1228283,1256543,29654.36,84
14471,Potsdam,Brandenburg,BB,"Potsdam, Stadt",52.3744,13.0102,2484826,1228283,1256543,29654.36,84
14473,Potsdam,Brandenburg,BB,"Potsdam, Stadt",52.3908,13.0645,2484826,1228283,1256543,29654.36,84
14476,Golm,Brandenburg,BB,Potsdam-Mittelmark,52.4,12.9667,2484826,1228283,1256543,29654.36,84
14478,Potsdam,Brandenburg,BB,"Potsdam, Stadt",52.3726,13.0914,2484826,1228283,1256543,29654.36,84
14480,Potsdam,Brandenburg,BB,"Potsdam, Stadt",52.3689,13.1273,2484826,1228283,1256543,29654.36,84
14482,Potsdam,Brandenburg,BB,"Potsdam, Stadt",52.3871,13.0993,2484826,1228283,1256543,29654.36,84
14513,Teltow,Brandenburg,BB,Potsdam-Mittelmark,52.3976,13.2523,2484826,1228283,1256543,29654.36,84
14532,Kleinmachnow,Brandenburg,BB,Potsdam-Mittelmark,52.4,13.2333,2484826,1228283,1256543,29654.36,84
14542,Kloster Lehnin,Brandenburg,BB,Potsdam-Mittelmark,52.3271,12.6625,2484826,1228283,1256543,29654.36,84
14547,Beelitz,Brandenburg,BB,Potsdam-Mittelmark,52.2333,12.9667,2484826,1228283,1256543,29654.36,84
14548,Schwielowsee,Brandenburg,BB,Potsdam-Mittelmark,52.3389,12.9722,2484826,1228283,1256543,29654.36,84
14550,Krielow,Brandenburg,BB,Potsdam-Mittelmark,52.4167,12.8,2484826,1228283,1256543,29654.36,84
14552,Michendorf,Brandenburg,BB,Potsdam-Mittelmark,52.3012,13.0257,2484826,1228283,1256543,29654.36,84
14554,Seddiner See,Brandenburg,BB,Potsdam-Mittelmark,52.2722,13.0167,2484826,1228283,1256543,29654.36,84
14557,Wilhelmshorst,Brandenburg,BB,Potsdam-Mittelmark,52.3333,13.0667,2484826,1228283,1256543,29654.36,84
14558,Bergholz-Rehbr?ke,Brandenburg,BB,Potsdam-Mittelmark,52.35,13.1,2484826,1228283,1256543,29654.36,84
14612,Falkensee,Brandenburg,BB,Havelland,52.5589,13.107,2484826,1228283,1256543,29654.36,84
14621,Sch?walde,Brandenburg,BB,Havelland,52.6167,13.1333,2484826,1228283,1256543,29654.36,84
14624,Dallgow-D?eritz,Brandenburg,BB,Havelland,52.5333,13.05,2484826,1228283,1256543,29654.36,84
14627,Elstal,Brandenburg,BB,Havelland,52.5412,12.99,2484826,1228283,1256543,29654.36,84
14641,M?lenberge,Brandenburg,BB,Havelland,52.6667,12.6111,2484826,1228283,1256543,29654.36,84
14656,Brieselang,Brandenburg,BB,Havelland,52.5833,13,2484826,1228283,1256543,29654.36,84
14662,M?lenberge,Brandenburg,BB,Havelland,52.6667,12.6111,2484826,1228283,1256543,29654.36,84
14669,Ketzin,Brandenburg,BB,Havelland,52.4667,12.85,2484826,1228283,1256543,29654.36,84
14712,Rathenow,Brandenburg,BB,Havelland,52.6092,12.3442,2484826,1228283,1256543,29654.36,84
14715,Milow,Brandenburg,BB,Havelland,52.5333,12.3167,2484826,1228283,1256543,29654.36,84
14727,Premnitz,Brandenburg,BB,Havelland,52.5333,12.3333,2484826,1228283,1256543,29654.36,84
14728,Kle?n-G?ne,Brandenburg,BB,Havelland,52.7167,12.5,2484826,1228283,1256543,29654.36,84
14770,Brandenburg an der Havel,Brandenburg,BB,"Brandenburg an der Havel, Stadt",52.4189,12.5228,2484826,1228283,1256543,29654.36,84
14772,Brandenburg an der Havel,Brandenburg,BB,"Brandenburg an der Havel, Stadt",52.4358,12.5297,2484826,1228283,1256543,29654.36,84
14774,Brandenburg an der Havel,Brandenburg,BB,"Brandenburg an der Havel, Stadt",52.3864,12.4144,2484826,1228283,1256543,29654.36,84
14776,Brandenburg an der Havel,Brandenburg,BB,Potsdam-Mittelmark,52.4043,12.568,2484826,1228283,1256543,29654.36,84
14778,Kloster Lehnin,Brandenburg,BB,Potsdam-Mittelmark,52.3271,12.6625,2484826,1228283,1256543,29654.36,84
14789,Bensdorf,Brandenburg,BB,Potsdam-Mittelmark,52.4167,12.3333,2484826,1228283,1256543,29654.36,84
14793,Gr?en,Brandenburg,BB,Potsdam-Mittelmark,52.2333,12.4333,2484826,1228283,1256543,29654.36,84
14797,Kloster Lehnin,Brandenburg,BB,Potsdam-Mittelmark,52.3271,12.6625,2484826,1228283,1256543,29654.36,84
14798,Havelsee,Brandenburg,BB,Potsdam-Mittelmark,52.4929,12.4667,2484826,1228283,1256543,29654.36,84
14806,Hagelberg,Brandenburg,BB,Potsdam-Mittelmark,52.1333,12.5167,2484826,1228283,1256543,29654.36,84
14822,Linthe,Brandenburg,BB,Potsdam-Mittelmark,52.1975,12.7851,2484826,1228283,1256543,29654.36,84
14823,Niemegk,Brandenburg,BB,Potsdam-Mittelmark,52.0531,12.6185,2484826,1228283,1256543,29654.36,84
14827,Wiesenburg,Brandenburg,BB,Potsdam-Mittelmark,52.1167,12.45,2484826,1228283,1256543,29654.36,84
14828,G?zke,Brandenburg,BB,Potsdam-Mittelmark,52.1708,12.3706,2484826,1228283,1256543,29654.36,84
14913,Niederer Fl?ing,Brandenburg,BB,Teltow-Fl?ing,51.9025,13.2092,2484826,1228283,1256543,29654.36,84
14929,Treuenbrietzen,Brandenburg,BB,Potsdam-Mittelmark,52.1,12.8667,2484826,1228283,1256543,29654.36,84
14943,L?sdorf,Brandenburg,BB,Teltow-Fl?ing,52.15,12.9667,2484826,1228283,1256543,29654.36,84
14947,Nuthe-Urstromtal,Brandenburg,BB,Teltow-Fl?ing,52.1116,13.2152,2484826,1228283,1256543,29654.36,84
14959,Sch?hagen,Brandenburg,BB,Teltow-Fl?ing,52.2167,13.15,2484826,1228283,1256543,29654.36,84
14974,Ludwigsfelde,Brandenburg,BB,Teltow-Fl?ing,52.3019,13.2607,2484826,1228283,1256543,29654.36,84
14979,Gro?eeren,Brandenburg,BB,Teltow-Fl?ing,52.3667,13.3333,2484826,1228283,1256543,29654.36,84
15230,Frankfurt (Oder),Brandenburg,BB,"Frankfurt (Oder), Stadt",52.3475,14.5539,2484826,1228283,1256543,29654.36,84
15232,Frankfurt (Oder),Brandenburg,BB,"Frankfurt (Oder), Stadt",52.3241,14.5325,2484826,1228283,1256543,29654.36,84
15234,Frankfurt (Oder),Brandenburg,BB,"Frankfurt (Oder), Stadt",52.3646,14.5244,2484826,1228283,1256543,29654.36,84
15236,Jacobsdorf,Brandenburg,BB,Oder-Spree,52.3542,14.3667,2484826,1228283,1256543,29654.36,84
15295,Gro?Lindow Schlaubehammer,Brandenburg,BB,Oder-Spree,52.25,14.4833,2484826,1228283,1256543,29654.36,84
15299,Mixdorf,Brandenburg,BB,Oder-Spree,52.2,14.4,2484826,1228283,1256543,29654.36,84
15306,Lietzen,Brandenburg,BB,M?kisch-Oderland,52.4677,14.3455,2484826,1228283,1256543,29654.36,84
15320,Neuhardenberg,Brandenburg,BB,M?kisch-Oderland,52.6028,14.2389,2484826,1228283,1256543,29654.36,84
15324,Gro?Neuendorf,Brandenburg,BB,M?kisch-Oderland,52.7,14.4167,2484826,1228283,1256543,29654.36,84
15326,Zeschdorf D?berin,Brandenburg,BB,M?kisch-Oderland,52.4414,14.3736,2484826,1228283,1256543,29654.36,84
15328,K?triner Vorland,Brandenburg,BB,M?kisch-Oderland,52.5624,14.5728,2484826,1228283,1256543,29654.36,84
15344,Strausberg,Brandenburg,BB,M?kisch-Oderland,52.5578,13.8757,2484826,1228283,1256543,29654.36,84
15345,Altlandsberg,Brandenburg,BB,M?kisch-Oderland,52.5667,13.7333,2484826,1228283,1256543,29654.36,84
15366,H?ow,Brandenburg,BB,M?kisch-Oderland,52.5436,13.6446,2484826,1228283,1256543,29654.36,84
15370,Fredersdorf-Vogelsdorf,Brandenburg,BB,M?kisch-Oderland,52.5,13.7333,2484826,1228283,1256543,29654.36,84
15372,M?cheberg,Brandenburg,BB,M?kisch-Oderland,52.5,14.1333,2484826,1228283,1256543,29654.36,84
15374,M?cheberg,Brandenburg,BB,M?kisch-Oderland,52.5114,14.1359,2484826,1228283,1256543,29654.36,84
15377,Oberbarnim,Brandenburg,BB,M?kisch-Oderland,52.5938,14.0355,2484826,1228283,1256543,29654.36,84
15378,Herzfelde,Brandenburg,BB,M?kisch-Oderland,52.4667,13.8667,2484826,1228283,1256543,29654.36,84
15517,F?stenwalde/Spree Trebus,Brandenburg,BB,Oder-Spree,52.4,14.05,2484826,1228283,1256543,29654.36,84
15518,Madlitz-Wilmersdorf Wilmersdorf,Brandenburg,BB,Oder-Spree,52.4,14.2667,2484826,1228283,1256543,29654.36,84
15526,Bad Saarow Bad Saarow,Brandenburg,BB,Oder-Spree,52.2833,14.0667,2484826,1228283,1256543,29654.36,84
15528,Spreenhagen Braunsdorf,Brandenburg,BB,Oder-Spree,52.3667,13.9667,2484826,1228283,1256543,29654.36,84
15537,Gosen Neu Zittau,Brandenburg,BB,Oder-Spree,52.3667,13.75,2484826,1228283,1256543,29654.36,84
15562,R?ersdorf bei Berlin,Brandenburg,BB,M?kisch-Oderland,52.4707,13.7736,2484826,1228283,1256543,29654.36,84
15566,Sch?eiche bei Berlin,Brandenburg,BB,Oder-Spree,52.4667,13.6833,2484826,1228283,1256543,29654.36,84
15569,Woltersdorf,Brandenburg,BB,Oder-Spree,52.45,13.7667,2484826,1228283,1256543,29654.36,84
15711,K?igs Wusterhausen,Brandenburg,BB,Dahme-Spreewald,52.2833,13.6167,2484826,1228283,1256543,29654.36,84
15732,Eichwalde,Brandenburg,BB,Dahme-Spreewald,52.3667,13.6167,2484826,1228283,1256543,29654.36,84
15738,Zeuthen,Brandenburg,BB,Dahme-Spreewald,52.3667,13.6167,2484826,1228283,1256543,29654.36,84
15741,Bestensee,Brandenburg,BB,Dahme-Spreewald,52.25,13.65,2484826,1228283,1256543,29654.36,84
15745,Wildau,Brandenburg,BB,Dahme-Spreewald,52.317,13.6152,2484826,1228283,1256543,29654.36,84
15746,Gro?K?is,Brandenburg,BB,Dahme-Spreewald,52.1667,13.6667,2484826,1228283,1256543,29654.36,84
15748,M?kisch Buchholz,Brandenburg,BB,Dahme-Spreewald,52.1,13.75,2484826,1228283,1256543,29654.36,84
15749,Ragow,Brandenburg,BB,Dahme-Spreewald,52.2833,13.55,2484826,1228283,1256543,29654.36,84
15751,Niederlehme,Brandenburg,BB,Dahme-Spreewald,52.3167,13.65,2484826,1228283,1256543,29654.36,84
15754,Wolzig,Brandenburg,BB,Dahme-Spreewald,52.2667,13.8333,2484826,1228283,1256543,29654.36,84
15755,Teupitz,Brandenburg,BB,Dahme-Spreewald,52.1326,13.6175,2484826,1228283,1256543,29654.36,84
15757,Oderin,Brandenburg,BB,Dahme-Spreewald,52.0833,13.7167,2484826,1228283,1256543,29654.36,84
15758,Zernsdorf,Brandenburg,BB,Dahme-Spreewald,52.299,13.6756,2484826,1228283,1256543,29654.36,84
15806,Kummersdorf-Alexanderdorf,Brandenburg,BB,Teltow-Fl?ing,52.1667,13.4167,2484826,1228283,1256543,29654.36,84
15827,Blankenfelde,Brandenburg,BB,Teltow-Fl?ing,52.3333,13.4,2484826,1228283,1256543,29654.36,84
15831,Selchow,Brandenburg,BB,Teltow-Fl?ing,52.3667,13.4667,2484826,1228283,1256543,29654.36,84
15834,Rangsdorf,Brandenburg,BB,Teltow-Fl?ing,52.295,13.4334,2484826,1228283,1256543,29654.36,84
15837,Baruth/Mark,Brandenburg,BB,Teltow-Fl?ing,52.05,13.5,2484826,1228283,1256543,29654.36,84
15838,Klausdorf,Brandenburg,BB,Teltow-Fl?ing,52.15,13.4,2484826,1228283,1256543,29654.36,84
15848,Friedland,Brandenburg,BB,Oder-Spree,52.0943,14.3104,2484826,1228283,1256543,29654.36,84
15859,Kehrigk,Brandenburg,BB,Oder-Spree,52.15,13.9167,2484826,1228283,1256543,29654.36,84
15864,Wendisch Rietz,Brandenburg,BB,Oder-Spree,52.2,14.0167,2484826,1228283,1256543,29654.36,84
15868,Lieberose,Brandenburg,BB,Dahme-Spreewald,51.9833,14.3,2484826,1228283,1256543,29654.36,84
15890,Schlaubetal F?feichen,Brandenburg,BB,Oder-Spree,52.15,14.5333,2484826,1228283,1256543,29654.36,84
15898,Neuzelle Kobbeln,Brandenburg,BB,Oder-Spree,52.1,14.65,2484826,1228283,1256543,29654.36,84
15907,L?ben (Spreewald),Brandenburg,BB,Dahme-Spreewald,51.9455,13.8852,2484826,1228283,1256543,29654.36,84
15910,Gr?itsch,Brandenburg,BB,Dahme-Spreewald,52.05,14,2484826,1228283,1256543,29654.36,84
15913,Mochow,Brandenburg,BB,Dahme-Spreewald,51.9833,14.2,2484826,1228283,1256543,29654.36,84
15926,Heideblick Bornsdorf,Brandenburg,BB,Dahme-Spreewald,51.7732,13.6939,2484826,1228283,1256543,29654.36,84
15936,Dahmetal,Brandenburg,BB,Teltow-Fl?ing,51.9067,13.5,2484826,1228283,1256543,29654.36,84
15938,Kasel-Golzig,Brandenburg,BB,Dahme-Spreewald,51.9333,13.7,2484826,1228283,1256543,29654.36,84
16225,Eberswalde,Brandenburg,BB,Barnim,52.8342,13.8218,2484826,1228283,1256543,29654.36,84
16227,Eberswalde,Brandenburg,BB,Barnim,52.8333,13.8333,2484826,1228283,1256543,29654.36,84
16230,Sydower Flie?Brandenburg,BB,Barnim,52.7274,13.723,,#N/A,#N/A,#N/A,#N/A,#N/A
16244,Altenhof,Brandenburg,BB,Barnim,52.9167,13.7167,2484826,1228283,1256543,29654.36,84
16247,Alth?tendorf,Brandenburg,BB,Barnim,52.9667,13.8,2484826,1228283,1256543,29654.36,84
16248,Oderberg,Brandenburg,BB,Barnim,52.8667,14.05,2484826,1228283,1256543,29654.36,84
16259,Falkenberg,Brandenburg,BB,M?kisch-Oderland,52.7826,13.9351,2484826,1228283,1256543,29654.36,84
16269,Bliesdorf,Brandenburg,BB,M?kisch-Oderland,52.6778,14.1615,2484826,1228283,1256543,29654.36,84
16278,Herzsprung,Brandenburg,BB,Uckermark,52.9833,13.9833,2484826,1228283,1256543,29654.36,84
16303,Schwedt/Oder,Brandenburg,BB,Uckermark,53.066,14.2711,2484826,1228283,1256543,29654.36,84
16306,Hohenselchow,Brandenburg,BB,Uckermark,53.2,14.2833,2484826,1228283,1256543,29654.36,84
16307,Mescherin,Brandenburg,BB,Uckermark,53.25,14.4333,2484826,1228283,1256543,29654.36,84
16321,Lindenberg,Brandenburg,BB,Barnim,52.6007,13.5162,2484826,1228283,1256543,29654.36,84
16341,Schwanebeck,Brandenburg,BB,Barnim,52.6333,13.55,2484826,1228283,1256543,29654.36,84
16348,Marienwerder,Brandenburg,BB,Barnim,52.85,13.6,2484826,1228283,1256543,29654.36,84
16352,Sch?walde,Brandenburg,BB,Barnim,52.6833,13.4333,2484826,1228283,1256543,29654.36,84
16356,Werneuchen,Brandenburg,BB,Barnim,52.6333,13.7333,2484826,1228283,1256543,29654.36,84
16359,Lanke,Brandenburg,BB,Barnim,52.7667,13.5667,2484826,1228283,1256543,29654.36,84
16515,Malz,Brandenburg,BB,Oberhavel,52.8,13.3,2484826,1228283,1256543,29654.36,84
16540,Hohen Neuendorf,Brandenburg,BB,Oberhavel,52.7092,13.2662,2484826,1228283,1256543,29654.36,84
16547,Birkenwerder,Brandenburg,BB,Oberhavel,52.6833,13.2833,2484826,1228283,1256543,29654.36,84
16548,Glienicke/Nordbahn,Brandenburg,BB,Oberhavel,52.6351,13.3075,2484826,1228283,1256543,29654.36,84
16552,Schildow,Brandenburg,BB,Oberhavel,52.6333,13.3833,2484826,1228283,1256543,29654.36,84
16556,Borgsdorf,Brandenburg,BB,Oberhavel,52.7089,13.2782,2484826,1228283,1256543,29654.36,84
16559,Liebenwalde,Brandenburg,BB,Oberhavel,52.8667,13.4,2484826,1228283,1256543,29654.36,84
16562,Bergfelde,Brandenburg,BB,Oberhavel,52.6725,13.3205,2484826,1228283,1256543,29654.36,84
16565,Lehnitz,Brandenburg,BB,Oberhavel,52.75,13.2667,2484826,1228283,1256543,29654.36,84
16567,M?lenbeck,Brandenburg,BB,Oberhavel,52.6667,13.3667,2484826,1228283,1256543,29654.36,84
16727,Oberkr?er,Brandenburg,BB,Oberhavel,52.5833,13.3167,2484826,1228283,1256543,29654.36,84
16761,Hennigsdorf,Brandenburg,BB,Oberhavel,52.6372,13.205,2484826,1228283,1256543,29654.36,84
16766,Oberkr?er,Brandenburg,BB,Oberhavel,52.5833,13.3167,2484826,1228283,1256543,29654.36,84
16767,Germendorf,Brandenburg,BB,Oberhavel,52.7375,13.173,2484826,1228283,1256543,29654.36,84
16775,Tornow,Brandenburg,BB,Oberhavel,53.0667,13.2833,2484826,1228283,1256543,29654.36,84
16792,Kurtschlag,Brandenburg,BB,Oberhavel,53,13.4833,2484826,1228283,1256543,29654.36,84
16798,Altthymen,Brandenburg,BB,Oberhavel,53.2333,13.1667,2484826,1228283,1256543,29654.36,84
16816,Neuruppin,Brandenburg,BB,Ostprignitz-Ruppin,52.9108,12.7946,2484826,1228283,1256543,29654.36,84
16818,Fehrbellin Wall,Brandenburg,BB,Ostprignitz-Ruppin,52.8167,12.9667,2484826,1228283,1256543,29654.36,84
16827,Alt Ruppin,Brandenburg,BB,Ostprignitz-Ruppin,52.9399,12.8509,2484826,1228283,1256543,29654.36,84
16831,Rheinsberg Heinrichsdorf,Brandenburg,BB,Ostprignitz-Ruppin,53.05,12.95,2484826,1228283,1256543,29654.36,84
16833,Fehrbellin Walchow,Brandenburg,BB,Ostprignitz-Ruppin,52.85,12.7667,2484826,1228283,1256543,29654.36,84
16835,Lindow (Mark) Hindenberg,Brandenburg,BB,Ostprignitz-Ruppin,53.0333,13,2484826,1228283,1256543,29654.36,84
16837,Wittstock/Dosse Zempow,Brandenburg,BB,Ostprignitz-Ruppin,53.2167,12.7333,2484826,1228283,1256543,29654.36,84
16845,Neustadt (Dosse),Brandenburg,BB,Ostprignitz-Ruppin,52.8667,12.4333,2484826,1228283,1256543,29654.36,84
16866,Kyritz K?zlin,Brandenburg,BB,Ostprignitz-Ruppin,52.9,12.2333,2484826,1228283,1256543,29654.36,84
16868,Wusterhausen (Dosse),Brandenburg,BB,Ostprignitz-Ruppin,52.8833,12.4667,2484826,1228283,1256543,29654.36,84
16909,Heiligengrabe Wernikow,Brandenburg,BB,Ostprignitz-Ruppin,53.2167,12.4333,2484826,1228283,1256543,29654.36,84
16918,Wittstock/Dosse Freyenstein,Brandenburg,BB,Ostprignitz-Ruppin,53.2833,12.35,2484826,1228283,1256543,29654.36,84
16921,Alt Kr?sow,Brandenburg,BB,Prignitz,53.15,12.2667,2484826,1228283,1256543,29654.36,84
16928,Alt Kr?sow,Brandenburg,BB,Prignitz,53.15,12.2667,2484826,1228283,1256543,29654.36,84
16945,Marienflie?Brandenburg,BB,Prignitz,53.32,12.1233,,#N/A,#N/A,#N/A,#N/A,#N/A
16949,Putlitz,Brandenburg,BB,Prignitz,53.25,12.05,2484826,1228283,1256543,29654.36,84
17268,Herzfelde,Brandenburg,BB,Uckermark,53.2,13.6,2484826,1228283,1256543,29654.36,84
17279,Lychen,Brandenburg,BB,Uckermark,53.2072,13.3272,2484826,1228283,1256543,29654.36,84
17291,Gramzow,Brandenburg,BB,Uckermark,53.2167,14,2484826,1228283,1256543,29654.36,84
17326,Br?sow,Brandenburg,BB,Uckermark,53.4,14.1333,2484826,1228283,1256543,29654.36,84
19309,Besandten,Brandenburg,BB,Prignitz,53.1,11.2833,2484826,1228283,1256543,29654.36,84
19322,Gro?Breese,Brandenburg,BB,Prignitz,53,11.8167,2484826,1228283,1256543,29654.36,84
19336,Legde/Quitz?el,Brandenburg,BB,Prignitz,52.9111,11.9778,2484826,1228283,1256543,29654.36,84
19339,Gl?en,Brandenburg,BB,Prignitz,52.9167,12.0833,2484826,1228283,1256543,29654.36,84
19348,Perleberg,Brandenburg,BB,Prignitz,53.0829,11.8577,2484826,1228283,1256543,29654.36,84
15752,Kolberg,Brandenburg,BB,Landkreis Dahme-Spreewald,52.25,13.8,2484826,1228283,1256543,29654.36,84
10178,Berlin,Berlin,BE,"Berlin, Stadt",52.5233,13.4138,3520031,1726533,1793498,891.68,3948
12555,Berlin,Berlin,BE,"Berlin, Stadt",52.5167,13.4,3520031,1726533,1793498,891.68,3948
13583,Berlin,Berlin,BE,"Berlin, Stadt",52.5167,13.4,3520031,1726533,1793498,891.68,3948
13587,Berlin,Berlin,BE,"Berlin, Stadt",52.5167,13.4,3520031,1726533,1793498,891.68,3948
13589,Berlin,Berlin,BE,"Berlin, Stadt",52.5167,13.4,3520031,1726533,1793498,891.68,3948
13593,Berlin,Berlin,BE,"Berlin, Stadt",52.5167,13.4,3520031,1726533,1793498,891.68,3948
13595,Berlin,Berlin,BE,"Berlin, Stadt",52.5167,13.4,3520031,1726533,1793498,891.68,3948
10115,Berlin,Berlin,BE,Kreisfreie Stadt Berlin,52.532,13.3922,3520031,1726533,1793498,891.68,3948
10117,Berlin,Berlin,BE,Kreisfreie Stadt Berlin,52.5161,13.3874,3520031,1726533,1793498,891.68,3948
10119,Berlin,Berlin,BE,Kreisfreie Stadt Berlin,52.5285,13.4109,3520031,1726533,1793498,891.68,3948
10179,Berlin,Berlin,BE,Kreisfreie Stadt Berlin,52.5136,13.4232,3520031,1726533,1793498,891.68,3948
10243,Berlin Friedrichshain,Berlin,BE,Kreisfreie Stadt Berlin,52.5056,13.4487,3520031,1726533,1793498,891.68,3948
10245,Berlin Friedrichshain,Berlin,BE,Kreisfreie Stadt Berlin,52.5167,13.4,3520031,1726533,1793498,891.68,3948
10247,Berlin Friedrichshain,Berlin,BE,Kreisfreie Stadt Berlin,52.515,13.4608,3520031,1726533,1793498,891.68,3948
10249,Berlin Friedrichshain,Berlin,BE,Kreisfreie Stadt Berlin,52.5167,13.4,3520031,1726533,1793498,891.68,3948
10315,Berlin,Berlin,BE,Kreisfreie Stadt Berlin,52.51,13.5257,3520031,1726533,1793498,891.68,3948
10317,Berlin,Berlin,BE,Kreisfreie Stadt Berlin,52.5167,13.4,3520031,1726533,1793498,891.68,3948
10318,Berlin,Berlin,BE,Kreisfreie Stadt Berlin,52.5167,13.4,3520031,1726533,1793498,891.68,3948
10319,Berlin,Berlin,BE,Kreisfreie Stadt Berlin,52.5167,13.4,3520031,1726533,1793498,891.68,3948
10365,Berlin,Berlin,BE,Kreisfreie Stadt Berlin,52.5128,13.4874,3520031,1726533,1793498,891.68,3948
10367,Berlin,Berlin,BE,Kreisfreie Stadt Berlin,52.5167,13.4,3520031,1726533,1793498,891.68,3948
10369,Berlin,Berlin,BE,Kreisfreie Stadt Berlin,52.5311,13.4625,3520031,1726533,1793498,891.68,3948
10405,Berlin,Berlin,BE,Kreisfreie Stadt Berlin,52.539,13.424,3520031,1726533,1793498,891.68,3948
10407,Berlin,Berlin,BE,Kreisfreie Stadt Berlin,52.5332,13.4464,3520031,1726533,1793498,891.68,3948
10409,Berlin,Berlin,BE,Kreisfreie Stadt Berlin,52.5167,13.4,3520031,1726533,1793498,891.68,3948
10435,Berlin,Berlin,BE,Kreisfreie Stadt Berlin,52.5167,13.4,3520031,1726533,1793498,891.68,3948
10437,Berlin,Berlin,BE,Kreisfreie Stadt Berlin,52.5466,13.4146,3520031,1726533,1793498,891.68,3948
10439,Berlin,Berlin,BE,Kreisfreie Stadt Berlin,52.553,13.4142,3520031,1726533,1793498,891.68,3948
10551,Berlin,Berlin,BE,Kreisfreie Stadt Berlin,52.5293,13.3369,3520031,1726533,1793498,891.68,3948
10553,Berlin,Berlin,BE,Kreisfreie Stadt Berlin,52.5291,13.3246,3520031,1726533,1793498,891.68,3948
10555,Berlin,Berlin,BE,Kreisfreie Stadt Berlin,52.5205,13.3414,3520031,1726533,1793498,891.68,3948
10557,Berlin,Berlin,BE,Kreisfreie Stadt Berlin,52.5268,13.3605,3520031,1726533,1793498,891.68,3948
10559,Berlin,Berlin,BE,Kreisfreie Stadt Berlin,52.5167,13.4,3520031,1726533,1793498,891.68,3948
10585,Berlin,Berlin,BE,Kreisfreie Stadt Berlin,52.5178,13.301,3520031,1726533,1793498,891.68,3948
10587,Berlin,Berlin,BE,Kreisfreie Stadt Berlin,52.5154,13.3194,3520031,1726533,1793498,891.68,3948
10589,Berlin,Berlin,BE,Kreisfreie Stadt Berlin,52.5167,13.4,3520031,1726533,1793498,891.68,3948
10623,Berlin,Berlin,BE,Kreisfreie Stadt Berlin,52.5076,13.3274,3520031,1726533,1793498,891.68,3948
10625,Berlin,Berlin,BE,Kreisfreie Stadt Berlin,52.5092,13.3158,3520031,1726533,1793498,891.68,3948
10627,Berlin,Berlin,BE,Kreisfreie Stadt Berlin,52.5086,13.3033,3520031,1726533,1793498,891.68,3948
10629,Berlin,Berlin,BE,Kreisfreie Stadt Berlin,52.5032,13.3134,3520031,1726533,1793498,891.68,3948
10707,Berlin,Berlin,BE,Kreisfreie Stadt Berlin,52.5167,13.4,3520031,1726533,1793498,891.68,3948
10709,Berlin,Berlin,BE,Kreisfreie Stadt Berlin,52.5167,13.4,3520031,1726533,1793498,891.68,3948
10711,Berlin,Berlin,BE,Kreisfreie Stadt Berlin,52.4958,13.2871,3520031,1726533,1793498,891.68,3948
10713,Berlin,Berlin,BE,Kreisfreie Stadt Berlin,52.4857,13.3108,3520031,1726533,1793498,891.68,3948
10715,Berlin,Berlin,BE,Kreisfreie Stadt Berlin,52.486,13.3272,3520031,1726533,1793498,891.68,3948
10717,Berlin,Berlin,BE,Kreisfreie Stadt Berlin,52.4908,13.331,3520031,1726533,1793498,891.68,3948
10719,Berlin,Berlin,BE,Kreisfreie Stadt Berlin,52.5034,13.329,3520031,1726533,1793498,891.68,3948
10777,Berlin,Berlin,BE,Kreisfreie Stadt Berlin,52.4966,13.3477,3520031,1726533,1793498,891.68,3948
10779,Berlin,Berlin,BE,Kreisfreie Stadt Berlin,52.4902,13.3452,3520031,1726533,1793498,891.68,3948
10781,Berlin,Berlin,BE,Kreisfreie Stadt Berlin,52.5167,13.4,3520031,1726533,1793498,891.68,3948
10783,Berlin,Berlin,BE,Kreisfreie Stadt Berlin,52.5167,13.4,3520031,1726533,1793498,891.68,3948
10785,Berlin,Berlin,BE,Kreisfreie Stadt Berlin,52.5088,13.3675,3520031,1726533,1793498,891.68,3948
10787,Berlin,Berlin,BE,Kreisfreie Stadt Berlin,52.5167,13.4,3520031,1726533,1793498,891.68,3948
10789,Berlin,Berlin,BE,Kreisfreie Stadt Berlin,52.5024,13.341,3520031,1726533,1793498,891.68,3948
10823,Berlin,Berlin,BE,Kreisfreie Stadt Berlin,52.5167,13.4,3520031,1726533,1793498,891.68,3948
10825,Berlin,Berlin,BE,Kreisfreie Stadt Berlin,52.4889,13.3438,3520031,1726533,1793498,891.68,3948
10827,Berlin,Berlin,BE,Kreisfreie Stadt Berlin,52.4853,13.355,3520031,1726533,1793498,891.68,3948
10829,Berlin,Berlin,BE,Kreisfreie Stadt Berlin,52.4809,13.3619,3520031,1726533,1793498,891.68,3948
10961,Berlin Kreuzberg,Berlin,BE,Kreisfreie Stadt Berlin,52.4924,13.3908,3520031,1726533,1793498,891.68,3948
10963,Berlin Kreuzberg,Berlin,BE,Kreisfreie Stadt Berlin,52.4992,13.3812,3520031,1726533,1793498,891.68,3948
10965,Berlin Kreuzberg,Berlin,BE,Kreisfreie Stadt Berlin,52.4887,13.3781,3520031,1726533,1793498,891.68,3948
10967,Berlin Kreuzberg,Berlin,BE,Kreisfreie Stadt Berlin,52.4921,13.4137,3520031,1726533,1793498,891.68,3948
10969,Berlin Kreuzberg,Berlin,BE,Kreisfreie Stadt Berlin,52.5038,13.41,3520031,1726533,1793498,891.68,3948
10997,Berlin Kreuzberg,Berlin,BE,Kreisfreie Stadt Berlin,52.5002,13.437,3520031,1726533,1793498,891.68,3948
10999,Berlin Kreuzberg,Berlin,BE,Kreisfreie Stadt Berlin,52.4992,13.4307,3520031,1726533,1793498,891.68,3948
12043,Berlin,Berlin,BE,Kreisfreie Stadt Berlin,52.4788,13.4374,3520031,1726533,1793498,891.68,3948
12045,Berlin,Berlin,BE,Kreisfreie Stadt Berlin,52.5167,13.4,3520031,1726533,1793498,891.68,3948
12047,Berlin,Berlin,BE,Kreisfreie Stadt Berlin,52.4873,13.4269,3520031,1726533,1793498,891.68,3948
12049,Berlin,Berlin,BE,Kreisfreie Stadt Berlin,52.4789,13.4228,3520031,1726533,1793498,891.68,3948
12051,Berlin,Berlin,BE,Kreisfreie Stadt Berlin,52.5167,13.4,3520031,1726533,1793498,891.68,3948
12053,Berlin,Berlin,BE,Kreisfreie Stadt Berlin,52.5167,13.4,3520031,1726533,1793498,891.68,3948
12055,Berlin,Berlin,BE,Kreisfreie Stadt Berlin,52.4693,13.4417,3520031,1726533,1793498,891.68,3948
12057,Berlin,Berlin,BE,Kreisfreie Stadt Berlin,52.4654,13.4425,3520031,1726533,1793498,891.68,3948
12059,Berlin,Berlin,BE,Kreisfreie Stadt Berlin,52.5167,13.4,3520031,1726533,1793498,891.68,3948
12099,Berlin,Berlin,BE,Kreisfreie Stadt Berlin,52.4671,13.3857,3520031,1726533,1793498,891.68,3948
12101,Berlin,Berlin,BE,Kreisfreie Stadt Berlin,52.4815,13.3862,3520031,1726533,1793498,891.68,3948
12103,Berlin,Berlin,BE,Kreisfreie Stadt Berlin,52.4638,13.3772,3520031,1726533,1793498,891.68,3948
12105,Berlin,Berlin,BE,Kreisfreie Stadt Berlin,52.4558,13.3672,3520031,1726533,1793498,891.68,3948
12107,Berlin,Berlin,BE,Kreisfreie Stadt Berlin,52.5167,13.4,3520031,1726533,1793498,891.68,3948
12109,Berlin,Berlin,BE,Kreisfreie Stadt Berlin,52.4424,13.3866,3520031,1726533,1793498,891.68,3948
12157,Berlin,Berlin,BE,Kreisfreie Stadt Berlin,52.5167,13.4,3520031,1726533,1793498,891.68,3948
12159,Berlin,Berlin,BE,Kreisfreie Stadt Berlin,52.474,13.3386,3520031,1726533,1793498,891.68,3948
12161,Berlin,Berlin,BE,Kreisfreie Stadt Berlin,52.5167,13.4,3520031,1726533,1793498,891.68,3948
12163,Berlin,Berlin,BE,Kreisfreie Stadt Berlin,52.4615,13.3253,3520031,1726533,1793498,891.68,3948
12165,Berlin,Berlin,BE,Kreisfreie Stadt Berlin,52.4594,13.3221,3520031,1726533,1793498,891.68,3948
12167,Berlin,Berlin,BE,Kreisfreie Stadt Berlin,52.5167,13.4,3520031,1726533,1793498,891.68,3948
12169,Berlin,Berlin,BE,Kreisfreie Stadt Berlin,52.4584,13.3366,3520031,1726533,1793498,891.68,3948
12203,Berlin,Berlin,BE,Kreisfreie Stadt Berlin,52.5167,13.4,3520031,1726533,1793498,891.68,3948
12205,Berlin,Berlin,BE,Kreisfreie Stadt Berlin,52.5167,13.4,3520031,1726533,1793498,891.68,3948
12207,Berlin,Berlin,BE,Kreisfreie Stadt Berlin,52.5167,13.4,3520031,1726533,1793498,891.68,3948
12209,Berlin,Berlin,BE,Kreisfreie Stadt Berlin,52.5167,13.4,3520031,1726533,1793498,891.68,3948
12247,Berlin,Berlin,BE,Kreisfreie Stadt Berlin,52.5167,13.4,3520031,1726533,1793498,891.68,3948
12249,Berlin,Berlin,BE,Kreisfreie Stadt Berlin,52.5167,13.4,3520031,1726533,1793498,891.68,3948
12277,Berlin,Berlin,BE,Kreisfreie Stadt Berlin,52.5167,13.4,3520031,1726533,1793498,891.68,3948
12279,Berlin,Berlin,BE,Kreisfreie Stadt Berlin,52.5167,13.4,3520031,1726533,1793498,891.68,3948
12305,Berlin,Berlin,BE,Kreisfreie Stadt Berlin,52.5167,13.4,3520031,1726533,1793498,891.68,3948
12307,Berlin,Berlin,BE,Kreisfreie Stadt Berlin,52.5167,13.4,3520031,1726533,1793498,891.68,3948
12309,Berlin,Berlin,BE,Kreisfreie Stadt Berlin,52.5167,13.4,3520031,1726533,1793498,891.68,3948
12347,Berlin,Berlin,BE,Kreisfreie Stadt Berlin,52.4552,13.4287,3520031,1726533,1793498,891.68,3948
12349,Berlin,Berlin,BE,Kreisfreie Stadt Berlin,52.5167,13.4,3520031,1726533,1793498,891.68,3948
12351,Berlin,Berlin,BE,Kreisfreie Stadt Berlin,52.5167,13.4,3520031,1726533,1793498,891.68,3948
12353,Berlin,Berlin,BE,Kreisfreie Stadt Berlin,52.5167,13.4,3520031,1726533,1793498,891.68,3948
12355,Berlin,Berlin,BE,Kreisfreie Stadt Berlin,52.5167,13.4,3520031,1726533,1793498,891.68,3948
12357,Berlin,Berlin,BE,Kreisfreie Stadt Berlin,52.5167,13.4,3520031,1726533,1793498,891.68,3948
12359,Berlin,Berlin,BE,Kreisfreie Stadt Berlin,52.4584,13.4479,3520031,1726533,1793498,891.68,3948
12435,Berlin,Berlin,BE,Kreisfreie Stadt Berlin,52.4975,13.4584,3520031,1726533,1793498,891.68,3948
12437,Berlin,Berlin,BE,Kreisfreie Stadt Berlin,52.4667,13.4884,3520031,1726533,1793498,891.68,3948
12439,Berlin,Berlin,BE,Kreisfreie Stadt Berlin,52.5167,13.4,3520031,1726533,1793498,891.68,3948
12459,Berlin,Berlin,BE,Kreisfreie Stadt Berlin,52.4713,13.5168,3520031,1726533,1793498,891.68,3948
12487,Berlin,Berlin,BE,Kreisfreie Stadt Berlin,52.5167,13.4,3520031,1726533,1793498,891.68,3948
12489,Berlin,Berlin,BE,Kreisfreie Stadt Berlin,52.5167,13.4,3520031,1726533,1793498,891.68,3948
12524,Berlin,Berlin,BE,Kreisfreie Stadt Berlin,52.5167,13.4,3520031,1726533,1793498,891.68,3948
12526,Berlin,Berlin,BE,Kreisfreie Stadt Berlin,52.5167,13.4,3520031,1726533,1793498,891.68,3948
12527,Berlin,Berlin,BE,Kreisfreie Stadt Berlin,52.5167,13.4,3520031,1726533,1793498,891.68,3948
12557,Berlin,Berlin,BE,Kreisfreie Stadt Berlin,52.5167,13.4,3520031,1726533,1793498,891.68,3948
12559,Berlin,Berlin,BE,Kreisfreie Stadt Berlin,52.5167,13.4,3520031,1726533,1793498,891.68,3948
12587,Berlin,Berlin,BE,Kreisfreie Stadt Berlin,52.5167,13.4,3520031,1726533,1793498,891.68,3948
12589,Berlin,Berlin,BE,Kreisfreie Stadt Berlin,52.5167,13.4,3520031,1726533,1793498,891.68,3948
12619,Berlin,Berlin,BE,Kreisfreie Stadt Berlin,52.5167,13.4,3520031,1726533,1793498,891.68,3948
12621,Berlin,Berlin,BE,Kreisfreie Stadt Berlin,52.5167,13.4,3520031,1726533,1793498,891.68,3948
12623,Berlin,Berlin,BE,Kreisfreie Stadt Berlin,52.5167,13.4,3520031,1726533,1793498,891.68,3948
12627,Berlin,Berlin,BE,Kreisfreie Stadt Berlin,52.5167,13.4,3520031,1726533,1793498,891.68,3948
12629,Berlin,Berlin,BE,Kreisfreie Stadt Berlin,52.5167,13.4,3520031,1726533,1793498,891.68,3948
12679,Berlin,Berlin,BE,Kreisfreie Stadt Berlin,52.5167,13.4,3520031,1726533,1793498,891.68,3948
12681,Berlin,Berlin,BE,Kreisfreie Stadt Berlin,52.5167,13.4,3520031,1726533,1793498,891.68,3948
12683,Berlin,Berlin,BE,Kreisfreie Stadt Berlin,52.5167,13.4,3520031,1726533,1793498,891.68,3948
12685,Berlin,Berlin,BE,Kreisfreie Stadt Berlin,52.5167,13.4,3520031,1726533,1793498,891.68,3948
12687,Berlin,Berlin,BE,Kreisfreie Stadt Berlin,52.5167,13.4,3520031,1726533,1793498,891.68,3948
12689,Berlin,Berlin,BE,Kreisfreie Stadt Berlin,52.5167,13.4,3520031,1726533,1793498,891.68,3948
13051,Berlin,Berlin,BE,Kreisfreie Stadt Berlin,52.5595,13.495,3520031,1726533,1793498,891.68,3948
13053,Berlin,Berlin,BE,Kreisfreie Stadt Berlin,52.548,13.4936,3520031,1726533,1793498,891.68,3948
13055,Berlin,Berlin,BE,Kreisfreie Stadt Berlin,52.5483,13.5073,3520031,1726533,1793498,891.68,3948
13057,Berlin,Berlin,BE,Kreisfreie Stadt Berlin,52.5666,13.5172,3520031,1726533,1793498,891.68,3948
13059,Berlin,Berlin,BE,Kreisfreie Stadt Berlin,52.5695,13.5171,3520031,1726533,1793498,891.68,3948
13086,Berlin,Berlin,BE,Kreisfreie Stadt Berlin,52.5167,13.4,3520031,1726533,1793498,891.68,3948
13088,Berlin,Berlin,BE,Kreisfreie Stadt Berlin,52.558,13.4697,3520031,1726533,1793498,891.68,3948
13089,Berlin,Berlin,BE,Kreisfreie Stadt Berlin,52.5714,13.4308,3520031,1726533,1793498,891.68,3948
13125,Berlin,Berlin,BE,Kreisfreie Stadt Berlin,52.5167,13.4,3520031,1726533,1793498,891.68,3948
13127,Berlin,Berlin,BE,Kreisfreie Stadt Berlin,52.5954,13.4314,3520031,1726533,1793498,891.68,3948
13129,Berlin,Berlin,BE,Kreisfreie Stadt Berlin,52.5167,13.4,3520031,1726533,1793498,891.68,3948
13156,Berlin,Berlin,BE,Kreisfreie Stadt Berlin,52.583,13.4095,3520031,1726533,1793498,891.68,3948
13158,Berlin,Berlin,BE,Kreisfreie Stadt Berlin,52.5921,13.3848,3520031,1726533,1793498,891.68,3948
13159,Berlin,Berlin,BE,Kreisfreie Stadt Berlin,52.5167,13.4,3520031,1726533,1793498,891.68,3948
13187,Berlin,Berlin,BE,Kreisfreie Stadt Berlin,52.5731,13.4171,3520031,1726533,1793498,891.68,3948
13189,Berlin,Berlin,BE,Kreisfreie Stadt Berlin,52.5677,13.423,3520031,1726533,1793498,891.68,3948
13347,Berlin,Berlin,BE,Kreisfreie Stadt Berlin,52.5449,13.3623,3520031,1726533,1793498,891.68,3948
13349,Berlin,Berlin,BE,Kreisfreie Stadt Berlin,52.5544,13.3447,3520031,1726533,1793498,891.68,3948
13351,Berlin,Berlin,BE,Kreisfreie Stadt Berlin,52.5167,13.4,3520031,1726533,1793498,891.68,3948
13353,Berlin,Berlin,BE,Kreisfreie Stadt Berlin,52.5427,13.3557,3520031,1726533,1793498,891.68,3948
13355,Berlin,Berlin,BE,Kreisfreie Stadt Berlin,52.5167,13.4,3520031,1726533,1793498,891.68,3948
13357,Berlin,Berlin,BE,Kreisfreie Stadt Berlin,52.5517,13.3843,3520031,1726533,1793498,891.68,3948
13359,Berlin,Berlin,BE,Kreisfreie Stadt Berlin,52.5565,13.3911,3520031,1726533,1793498,891.68,3948
13403,Berlin,Berlin,BE,Kreisfreie Stadt Berlin,52.5723,13.324,3520031,1726533,1793498,891.68,3948
13405,Berlin,Berlin,BE,Kreisfreie Stadt Berlin,52.567,13.313,3520031,1726533,1793498,891.68,3948
13407,Berlin,Berlin,BE,Kreisfreie Stadt Berlin,52.5698,13.3416,3520031,1726533,1793498,891.68,3948
13409,Berlin,Berlin,BE,Kreisfreie Stadt Berlin,52.5586,13.3668,3520031,1726533,1793498,891.68,3948
13435,Berlin,Berlin,BE,Kreisfreie Stadt Berlin,52.5993,13.3537,3520031,1726533,1793498,891.68,3948
13437,Berlin,Berlin,BE,Kreisfreie Stadt Berlin,52.5922,13.3312,3520031,1726533,1793498,891.68,3948
13439,Berlin,Berlin,BE,Kreisfreie Stadt Berlin,52.598,13.358,3520031,1726533,1793498,891.68,3948
13465,Berlin,Berlin,BE,Kreisfreie Stadt Berlin,52.6429,13.2869,3520031,1726533,1793498,891.68,3948
13467,Berlin,Berlin,BE,Kreisfreie Stadt Berlin,52.5167,13.4,3520031,1726533,1793498,891.68,3948
13469,Berlin,Berlin,BE,Kreisfreie Stadt Berlin,52.5167,13.4,3520031,1726533,1793498,891.68,3948
13503,Berlin,Berlin,BE,Kreisfreie Stadt Berlin,52.5167,13.4,3520031,1726533,1793498,891.68,3948
13505,Berlin,Berlin,BE,Kreisfreie Stadt Berlin,52.5167,13.4,3520031,1726533,1793498,891.68,3948
13507,Berlin,Berlin,BE,Kreisfreie Stadt Berlin,52.5167,13.4,3520031,1726533,1793498,891.68,3948
13509,Berlin,Berlin,BE,Kreisfreie Stadt Berlin,52.5167,13.4,3520031,1726533,1793498,891.68,3948
13581,Berlin,Berlin,BE,Kreisfreie Stadt Berlin,52.5167,13.4,3520031,1726533,1793498,891.68,3948
13585,Berlin,Berlin,BE,Kreisfreie Stadt Berlin,52.5167,13.4,3520031,1726533,1793498,891.68,3948
13591,Berlin,Berlin,BE,Kreisfreie Stadt Berlin,52.5167,13.4,3520031,1726533,1793498,891.68,3948
13597,Berlin,Berlin,BE,Kreisfreie Stadt Berlin,52.5167,13.4,3520031,1726533,1793498,891.68,3948
13599,Berlin,Berlin,BE,Kreisfreie Stadt Berlin,52.5167,13.4,3520031,1726533,1793498,891.68,3948
13627,Berlin,Berlin,BE,Kreisfreie Stadt Berlin,52.5349,13.2828,3520031,1726533,1793498,891.68,3948
13629,Berlin,Berlin,BE,Kreisfreie Stadt Berlin,52.5167,13.4,3520031,1726533,1793498,891.68,3948
14050,Berlin,Berlin,BE,Kreisfreie Stadt Berlin,52.5194,13.2723,3520031,1726533,1793498,891.68,3948
14052,Berlin,Berlin,BE,Kreisfreie Stadt Berlin,52.5154,13.2618,3520031,1726533,1793498,891.68,3948
14053,Berlin,Berlin,BE,Kreisfreie Stadt Berlin,52.5167,13.4,3520031,1726533,1793498,891.68,3948
14055,Berlin,Berlin,BE,Kreisfreie Stadt Berlin,52.5086,13.2591,3520031,1726533,1793498,891.68,3948
14057,Berlin,Berlin,BE,Kreisfreie Stadt Berlin,52.5094,13.2848,3520031,1726533,1793498,891.68,3948
14059,Berlin,Berlin,BE,Kreisfreie Stadt Berlin,52.5167,13.4,3520031,1726533,1793498,891.68,3948
14089,Berlin,Berlin,BE,Kreisfreie Stadt Berlin,52.5167,13.4,3520031,1726533,1793498,891.68,3948
14109,Berlin,Berlin,BE,Kreisfreie Stadt Berlin,52.5167,13.4,3520031,1726533,1793498,891.68,3948
14129,Berlin,Berlin,BE,Kreisfreie Stadt Berlin,52.5167,13.4,3520031,1726533,1793498,891.68,3948
14131,Berlin,Berlin,BE,Kreisfreie Stadt Berlin,52.517,13.4,3520031,1726533,1793498,891.68,3948
14163,Berlin,Berlin,BE,Kreisfreie Stadt Berlin,52.5167,13.4,3520031,1726533,1793498,891.68,3948
14165,Berlin,Berlin,BE,Kreisfreie Stadt Berlin,52.5167,13.4,3520031,1726533,1793498,891.68,3948
14167,Berlin,Berlin,BE,Kreisfreie Stadt Berlin,52.5167,13.4,3520031,1726533,1793498,891.68,3948
14169,Berlin,Berlin,BE,Kreisfreie Stadt Berlin,52.5167,13.4,3520031,1726533,1793498,891.68,3948
14193,Berlin,Berlin,BE,Kreisfreie Stadt Berlin,52.4947,13.2852,3520031,1726533,1793498,891.68,3948
14195,Berlin,Berlin,BE,Kreisfreie Stadt Berlin,52.5167,13.4,3520031,1726533,1793498,891.68,3948
14197,Berlin,Berlin,BE,Kreisfreie Stadt Berlin,52.4732,13.3109,3520031,1726533,1793498,891.68,3948
14199,Berlin,Berlin,BE,Kreisfreie Stadt Berlin,52.4827,13.2905,3520031,1726533,1793498,891.68,3948
70173,Stuttgart Stuttgart-Mitte,Baden-W¨¹rttemberg,BW,Stuttgart,48.7786,9.1767,10879618,5393388,5486230,35751.33,304
70174,Stuttgart,Baden-W¨¹rttemberg,BW,Stuttgart,48.7667,9.1833,10879618,5393388,5486230,35751.33,304
70176,Stuttgart,Baden-W¨¹rttemberg,BW,Stuttgart,48.7667,9.1833,10879618,5393388,5486230,35751.33,304
70178,Stuttgart Stuttgart-West,Baden-W¨¹rttemberg,BW,Stuttgart,48.7736,9.1641,10879618,5393388,5486230,35751.33,304
70180,Stuttgart,Baden-W¨¹rttemberg,BW,Stuttgart,48.7667,9.1833,10879618,5393388,5486230,35751.33,304
70182,Stuttgart,Baden-W¨¹rttemberg,BW,Stuttgart,48.7667,9.1833,10879618,5393388,5486230,35751.33,304
70184,Stuttgart,Baden-W¨¹rttemberg,BW,Stuttgart,48.7667,9.1833,10879618,5393388,5486230,35751.33,304
70186,Stuttgart,Baden-W¨¹rttemberg,BW,Stuttgart,48.7667,9.1833,10879618,5393388,5486230,35751.33,304
70188,Stuttgart,Baden-W¨¹rttemberg,BW,Stuttgart,48.7667,9.1833,10879618,5393388,5486230,35751.33,304
70190,Stuttgart Stuttgart-Ost,Baden-W¨¹rttemberg,BW,Stuttgart,48.7819,9.2079,10879618,5393388,5486230,35751.33,304
70191,Stuttgart,Baden-W¨¹rttemberg,BW,Stuttgart,48.7667,9.1833,10879618,5393388,5486230,35751.33,304
70192,Stuttgart Feuerbach,Baden-W¨¹rttemberg,BW,Stuttgart,48.8113,9.1588,10879618,5393388,5486230,35751.33,304
70193,Stuttgart,Baden-W¨¹rttemberg,BW,Stuttgart,48.7667,9.1833,10879618,5393388,5486230,35751.33,304
70195,Stuttgart,Baden-W¨¹rttemberg,BW,Stuttgart,48.7667,9.1833,10879618,5393388,5486230,35751.33,304
70197,Stuttgart,Baden-W¨¹rttemberg,BW,Stuttgart,48.7667,9.1833,10879618,5393388,5486230,35751.33,304
70199,Stuttgart Stuttgart-S?,Baden-W¨¹rttemberg,BW,Stuttgart,48.7644,9.1678,10879618,5393388,5486230,35751.33,304
70327,Stuttgart Rotenberg,Baden-W¨¹rttemberg,BW,Stuttgart,48.7833,9.2715,10879618,5393388,5486230,35751.33,304
70329,Stuttgart,Baden-W¨¹rttemberg,BW,Stuttgart,48.7667,9.1833,10879618,5393388,5486230,35751.33,304
70372,Stuttgart,Baden-W¨¹rttemberg,BW,Stuttgart,48.8026,9.2177,10879618,5393388,5486230,35751.33,304
70374,Stuttgart,Baden-W¨¹rttemberg,BW,Stuttgart,48.7667,9.1833,10879618,5393388,5486230,35751.33,304
70376,Stuttgart Burgholzhof,Baden-W¨¹rttemberg,BW,Stuttgart,48.8137,9.2124,10879618,5393388,5486230,35751.33,304
70378,Stuttgart,Baden-W¨¹rttemberg,BW,Stuttgart,48.837,9.227,10879618,5393388,5486230,35751.33,304
70435,Stuttgart,Baden-W¨¹rttemberg,BW,Stuttgart,48.7667,9.1833,10879618,5393388,5486230,35751.33,304
70437,Stuttgart Zuffenhausen,Baden-W¨¹rttemberg,BW,Stuttgart,48.8353,9.1938,10879618,5393388,5486230,35751.33,304
70439,Stuttgart Neuwirtshaus,Baden-W¨¹rttemberg,BW,Stuttgart,48.8357,9.1424,10879618,5393388,5486230,35751.33,304
70469,Stuttgart Feuerbach,Baden-W¨¹rttemberg,BW,Stuttgart,48.8098,9.1612,10879618,5393388,5486230,35751.33,304
70499,Stuttgart Giebel,Baden-W¨¹rttemberg,BW,Stuttgart,48.8067,9.0891,10879618,5393388,5486230,35751.33,304
70563,Stuttgart M?ringen,Baden-W¨¹rttemberg,BW,Stuttgart,48.7258,9.1464,10879618,5393388,5486230,35751.33,304
70565,Stuttgart D?rlewang,Baden-W¨¹rttemberg,BW,Stuttgart,48.7195,9.1181,10879618,5393388,5486230,35751.33,304
70567,Stuttgart M?ringen,Baden-W¨¹rttemberg,BW,Stuttgart,48.7258,9.1464,10879618,5393388,5486230,35751.33,304
70569,Stuttgart Vaihingen,Baden-W¨¹rttemberg,BW,Stuttgart,48.7301,9.1097,10879618,5393388,5486230,35751.33,304
70597,Stuttgart Degerloch,Baden-W¨¹rttemberg,BW,Stuttgart,48.7496,9.1703,10879618,5393388,5486230,35751.33,304
70599,Stuttgart Sch?berg,Baden-W¨¹rttemberg,BW,Stuttgart,48.7325,9.2001,10879618,5393388,5486230,35751.33,304
70619,Stuttgart Heumaden,Baden-W¨¹rttemberg,BW,Stuttgart,48.7463,9.2376,10879618,5393388,5486230,35751.33,304
70629,Stuttgart Flughafen,Baden-W¨¹rttemberg,BW,Stuttgart,48.6836,9.2121,10879618,5393388,5486230,35751.33,304
70734,Fellbach,Baden-W¨¹rttemberg,BW,Rems-Murr-Kreis,48.8086,9.2792,10879618,5393388,5486230,35751.33,304
70736,Fellbach,Baden-W¨¹rttemberg,BW,Rems-Murr-Kreis,48.8238,9.272,10879618,5393388,5486230,35751.33,304
70771,Leinfelden-Echterdingen,Baden-W¨¹rttemberg,BW,Esslingen,48.7,9.15,10879618,5393388,5486230,35751.33,304
70794,Filderstadt,Baden-W¨¹rttemberg,BW,Esslingen,48.6704,9.2141,10879618,5393388,5486230,35751.33,304
70806,Kornwestheim,Baden-W¨¹rttemberg,BW,Ludwigsburg,48.8675,9.1837,10879618,5393388,5486230,35751.33,304
70825,Korntal-M?chingen,Baden-W¨¹rttemberg,BW,Ludwigsburg,48.8167,9.1167,10879618,5393388,5486230,35751.33,304
70839,Gerlingen,Baden-W¨¹rttemberg,BW,Ludwigsburg,48.7944,9.0492,10879618,5393388,5486230,35751.33,304
71032,B?lingen,Baden-W¨¹rttemberg,BW,B?lingen,48.6803,9.0204,10879618,5393388,5486230,35751.33,304
71034,B?lingen,Baden-W¨¹rttemberg,BW,B?lingen,48.6902,8.9705,10879618,5393388,5486230,35751.33,304
71063,Sindelfingen,Baden-W¨¹rttemberg,BW,B?lingen,48.7094,8.9988,10879618,5393388,5486230,35751.33,304
71065,Sindelfingen,Baden-W¨¹rttemberg,BW,B?lingen,48.7023,9.0219,10879618,5393388,5486230,35751.33,304
71067,Sindelfingen,Baden-W¨¹rttemberg,BW,B?lingen,48.7233,9.0077,10879618,5393388,5486230,35751.33,304
71083,Herrenberg,Baden-W¨¹rttemberg,BW,B?lingen,48.589,8.8778,10879618,5393388,5486230,35751.33,304
71088,Holzgerlingen,Baden-W¨¹rttemberg,BW,B?lingen,48.6333,9.0167,10879618,5393388,5486230,35751.33,304
71093,Weil im Sch?buch,Baden-W¨¹rttemberg,BW,B?lingen,48.6167,9.0667,10879618,5393388,5486230,35751.33,304
71101,Sch?aich,Baden-W¨¹rttemberg,BW,B?lingen,48.6615,9.0688,10879618,5393388,5486230,35751.33,304
71106,Magstadt,Baden-W¨¹rttemberg,BW,B?lingen,48.7402,8.9662,10879618,5393388,5486230,35751.33,304
71111,Waldenbuch,Baden-W¨¹rttemberg,BW,B?lingen,48.6385,9.1306,10879618,5393388,5486230,35751.33,304
71116,G?tringen,Baden-W¨¹rttemberg,BW,B?lingen,48.65,8.9,10879618,5393388,5486230,35751.33,304
71120,Grafenau,Baden-W¨¹rttemberg,BW,B?lingen,48.7083,8.9183,10879618,5393388,5486230,35751.33,304
71126,G?felden,Baden-W¨¹rttemberg,BW,B?lingen,48.55,8.8167,10879618,5393388,5486230,35751.33,304
71131,Jettingen,Baden-W¨¹rttemberg,BW,B?lingen,48.575,8.7865,10879618,5393388,5486230,35751.33,304
71134,Aidlingen,Baden-W¨¹rttemberg,BW,B?lingen,48.6796,8.9075,10879618,5393388,5486230,35751.33,304
71139,Ehningen,Baden-W¨¹rttemberg,BW,B?lingen,48.6667,8.9333,10879618,5393388,5486230,35751.33,304
71144,Steinenbronn,Baden-W¨¹rttemberg,BW,B?lingen,48.6618,9.1218,10879618,5393388,5486230,35751.33,304
71149,Bondorf,Baden-W¨¹rttemberg,BW,B?lingen,48.5189,8.8304,10879618,5393388,5486230,35751.33,304
71154,Nufringen,Baden-W¨¹rttemberg,BW,B?lingen,48.6207,8.8988,10879618,5393388,5486230,35751.33,304
71155,Altdorf,Baden-W¨¹rttemberg,BW,B?lingen,48.6333,9,10879618,5393388,5486230,35751.33,304
71157,Hildrizhausen,Baden-W¨¹rttemberg,BW,B?lingen,48.6259,8.9734,10879618,5393388,5486230,35751.33,304
71159,M?zingen,Baden-W¨¹rttemberg,BW,B?lingen,48.5333,8.7667,10879618,5393388,5486230,35751.33,304
71229,Leonberg,Baden-W¨¹rttemberg,BW,B?lingen,48.7895,9.013,10879618,5393388,5486230,35751.33,304
71254,Ditzingen,Baden-W¨¹rttemberg,BW,Ludwigsburg,48.8217,9.0647,10879618,5393388,5486230,35751.33,304
71263,Weil der Stadt,Baden-W¨¹rttemberg,BW,B?lingen,48.7558,8.8618,10879618,5393388,5486230,35751.33,304
71272,Renningen,Baden-W¨¹rttemberg,BW,B?lingen,48.7801,8.9321,10879618,5393388,5486230,35751.33,304
71277,Rutesheim,Baden-W¨¹rttemberg,BW,B?lingen,48.8069,8.9524,10879618,5393388,5486230,35751.33,304
71282,Hemmingen,Baden-W¨¹rttemberg,BW,Ludwigsburg,48.8646,9.0376,10879618,5393388,5486230,35751.33,304
71287,Weissach,Baden-W¨¹rttemberg,BW,B?lingen,48.8333,8.9167,10879618,5393388,5486230,35751.33,304
71332,Waiblingen,Baden-W¨¹rttemberg,BW,Rems-Murr-Kreis,48.8285,9.313,10879618,5393388,5486230,35751.33,304
71334,Waiblingen,Baden-W¨¹rttemberg,BW,Rems-Murr-Kreis,48.843,9.31,10879618,5393388,5486230,35751.33,304
71336,Waiblingen,Baden-W¨¹rttemberg,BW,Rems-Murr-Kreis,48.8333,9.3,10879618,5393388,5486230,35751.33,304
71364,Winnenden,Baden-W¨¹rttemberg,BW,Rems-Murr-Kreis,48.8734,9.3908,10879618,5393388,5486230,35751.33,304
71384,Weinstadt,Baden-W¨¹rttemberg,BW,Rems-Murr-Kreis,48.8092,9.3774,10879618,5393388,5486230,35751.33,304
71394,Kernen im Remstal,Baden-W¨¹rttemberg,BW,Rems-Murr-Kreis,48.8075,9.3224,10879618,5393388,5486230,35751.33,304
71397,Leutenbach,Baden-W¨¹rttemberg,BW,Rems-Murr-Kreis,48.8833,9.4,10879618,5393388,5486230,35751.33,304
71404,Korb,Baden-W¨¹rttemberg,BW,Rems-Murr-Kreis,48.8436,9.3632,10879618,5393388,5486230,35751.33,304
71409,Schwaikheim,Baden-W¨¹rttemberg,BW,Rems-Murr-Kreis,48.8687,9.3554,10879618,5393388,5486230,35751.33,304
71522,Backnang,Baden-W¨¹rttemberg,BW,Rems-Murr-Kreis,48.9432,9.433,10879618,5393388,5486230,35751.33,304
71540,Murrhardt,Baden-W¨¹rttemberg,BW,Rems-Murr-Kreis,48.9783,9.5864,10879618,5393388,5486230,35751.33,304
71543,Beilstein,Baden-W¨¹rttemberg,BW,Heilbronn,49.0394,9.315,10879618,5393388,5486230,35751.33,304
71546,Aspach,Baden-W¨¹rttemberg,BW,Rems-Murr-Kreis,48.9667,9.4,10879618,5393388,5486230,35751.33,304
71549,Auenwald,Baden-W¨¹rttemberg,BW,Rems-Murr-Kreis,48.9333,9.5,10879618,5393388,5486230,35751.33,304
71554,Weissach im Tal,Baden-W¨¹rttemberg,BW,Rems-Murr-Kreis,48.9301,9.4769,10879618,5393388,5486230,35751.33,304
71560,Sulzbach an der Murr,Baden-W¨¹rttemberg,BW,Rems-Murr-Kreis,49.0025,9.5009,10879618,5393388,5486230,35751.33,304
71563,Affalterbach,Baden-W¨¹rttemberg,BW,Ludwigsburg,48.9167,9.3167,10879618,5393388,5486230,35751.33,304
71566,Alth?te,Baden-W¨¹rttemberg,BW,Rems-Murr-Kreis,48.9167,9.5667,10879618,5393388,5486230,35751.33,304
71570,Oppenweiler,Baden-W¨¹rttemberg,BW,Rems-Murr-Kreis,48.9833,9.45,10879618,5393388,5486230,35751.33,304
71573,Allmersbach im Tal,Baden-W¨¹rttemberg,BW,Rems-Murr-Kreis,48.9,9.4667,10879618,5393388,5486230,35751.33,304
71576,Burgstetten,Baden-W¨¹rttemberg,BW,Rems-Murr-Kreis,48.9333,9.3667,10879618,5393388,5486230,35751.33,304
71577,Gro?rlach,Baden-W¨¹rttemberg,BW,Rems-Murr-Kreis,49.05,9.5167,10879618,5393388,5486230,35751.33,304
71579,Spiegelberg,Baden-W¨¹rttemberg,BW,Rems-Murr-Kreis,49.0408,9.4444,10879618,5393388,5486230,35751.33,304
71634,Ludwigsburg,Baden-W¨¹rttemberg,BW,Ludwigsburg,48.9076,9.1776,10879618,5393388,5486230,35751.33,304
71636,Ludwigsburg,Baden-W¨¹rttemberg,BW,Ludwigsburg,48.8901,9.1746,10879618,5393388,5486230,35751.33,304
71638,Ludwigsburg,Baden-W¨¹rttemberg,BW,Ludwigsburg,48.8909,9.1898,10879618,5393388,5486230,35751.33,304
71640,Ludwigsburg,Baden-W¨¹rttemberg,BW,Ludwigsburg,48.8924,9.218,10879618,5393388,5486230,35751.33,304
71642,Ludwigsburg,Baden-W¨¹rttemberg,BW,Ludwigsburg,48.907,9.2174,10879618,5393388,5486230,35751.33,304
71665,Vaihingen an der Enz,Baden-W¨¹rttemberg,BW,Ludwigsburg,48.9354,8.9606,10879618,5393388,5486230,35751.33,304
71672,Marbach am Neckar,Baden-W¨¹rttemberg,BW,Ludwigsburg,48.97,9.3286,10879618,5393388,5486230,35751.33,304
71679,Asperg,Baden-W¨¹rttemberg,BW,Ludwigsburg,48.9049,9.1389,10879618,5393388,5486230,35751.33,304
71686,Remseck am Neckar,Baden-W¨¹rttemberg,BW,Ludwigsburg,48.8783,9.2673,10879618,5393388,5486230,35751.33,304
71691,Freiberg am Neckar,Baden-W¨¹rttemberg,BW,Ludwigsburg,48.9296,9.202,10879618,5393388,5486230,35751.33,304
71696,M?lingen,Baden-W¨¹rttemberg,BW,Ludwigsburg,48.8833,9.1333,10879618,5393388,5486230,35751.33,304
71701,Schwieberdingen,Baden-W¨¹rttemberg,BW,Ludwigsburg,48.8806,9.084,10879618,5393388,5486230,35751.33,304
71706,Markgr?ingen,Baden-W¨¹rttemberg,BW,Ludwigsburg,48.9213,9.068,10879618,5393388,5486230,35751.33,304
71711,Steinheim an der Murr,Baden-W¨¹rttemberg,BW,Ludwigsburg,48.9639,9.283,10879618,5393388,5486230,35751.33,304
71717,Beilstein,Baden-W¨¹rttemberg,BW,Heilbronn,49.0394,9.315,10879618,5393388,5486230,35751.33,304
71718,Billensbach,Baden-W¨¹rttemberg,BW,Heilbronn,49.0631,9.3661,10879618,5393388,5486230,35751.33,304
71720,Oberstenfeld,Baden-W¨¹rttemberg,BW,Ludwigsburg,49.0261,9.3208,10879618,5393388,5486230,35751.33,304
71723,Gro?ottwar,Baden-W¨¹rttemberg,BW,Ludwigsburg,49.0007,9.2973,10879618,5393388,5486230,35751.33,304
71726,Benningen am Neckar,Baden-W¨¹rttemberg,BW,Ludwigsburg,48.9398,9.2382,10879618,5393388,5486230,35751.33,304
71729,Erdmannhausen,Baden-W¨¹rttemberg,BW,Ludwigsburg,48.9333,9.3,10879618,5393388,5486230,35751.33,304
71732,Tamm,Baden-W¨¹rttemberg,BW,Ludwigsburg,48.9204,9.1287,10879618,5393388,5486230,35751.33,304
71735,Eberdingen,Baden-W¨¹rttemberg,BW,Ludwigsburg,48.8852,8.9962,10879618,5393388,5486230,35751.33,304
71737,Kirchberg an der Murr,Baden-W¨¹rttemberg,BW,Rems-Murr-Kreis,48.95,9.3333,10879618,5393388,5486230,35751.33,304
71739,Oberriexingen,Baden-W¨¹rttemberg,BW,Ludwigsburg,48.9333,9.0333,10879618,5393388,5486230,35751.33,304
72622,N?tingen,Baden-W¨¹rttemberg,BW,Esslingen,48.6305,9.33,10879618,5393388,5486230,35751.33,304
72631,Aichtal,Baden-W¨¹rttemberg,BW,Esslingen,48.6333,9.2667,10879618,5393388,5486230,35751.33,304
72636,Frickenhausen,Baden-W¨¹rttemberg,BW,Esslingen,48.6,9.3667,10879618,5393388,5486230,35751.33,304
72639,Neuffen,Baden-W¨¹rttemberg,BW,Esslingen,48.55,9.3667,10879618,5393388,5486230,35751.33,304
72644,Oberboihingen,Baden-W¨¹rttemberg,BW,Esslingen,48.6542,9.3662,10879618,5393388,5486230,35751.33,304
72649,Wolfschlugen,Baden-W¨¹rttemberg,BW,Esslingen,48.6455,9.3062,10879618,5393388,5486230,35751.33,304
72654,Neckartenzlingen,Baden-W¨¹rttemberg,BW,Esslingen,48.5929,9.2345,10879618,5393388,5486230,35751.33,304
72655,Altdorf,Baden-W¨¹rttemberg,BW,Esslingen,48.5833,9.2667,10879618,5393388,5486230,35751.33,304
72657,Altenriet,Baden-W¨¹rttemberg,BW,Esslingen,48.5833,9.2167,10879618,5393388,5486230,35751.33,304
72658,Bempflingen,Baden-W¨¹rttemberg,BW,Esslingen,48.5667,9.2667,10879618,5393388,5486230,35751.33,304
72660,Beuren,Baden-W¨¹rttemberg,BW,Esslingen,48.5676,9.3962,10879618,5393388,5486230,35751.33,304
72663,Gro?ettlingen,Baden-W¨¹rttemberg,BW,Esslingen,48.6,9.3,10879618,5393388,5486230,35751.33,304
72664,Kohlberg,Baden-W¨¹rttemberg,BW,Esslingen,48.5667,9.3333,10879618,5393388,5486230,35751.33,304
72666,Neckartailfingen,Baden-W¨¹rttemberg,BW,Esslingen,48.6167,9.2667,10879618,5393388,5486230,35751.33,304
72667,Schlaitdorf,Baden-W¨¹rttemberg,BW,Esslingen,48.6,9.2167,10879618,5393388,5486230,35751.33,304
72669,Unterensingen,Baden-W¨¹rttemberg,BW,Esslingen,48.6526,9.3548,10879618,5393388,5486230,35751.33,304
73033,G?pingen,Baden-W¨¹rttemberg,BW,G?pingen,48.7075,9.6514,10879618,5393388,5486230,35751.33,304
73035,G?pingen,Baden-W¨¹rttemberg,BW,G?pingen,48.7,9.6667,10879618,5393388,5486230,35751.33,304
73037,G?pingen,Baden-W¨¹rttemberg,BW,G?pingen,48.6959,9.6647,10879618,5393388,5486230,35751.33,304
73054,Eislingen/Fils,Baden-W¨¹rttemberg,BW,G?pingen,48.6944,9.7009,10879618,5393388,5486230,35751.33,304
73061,Ebersbach an der Fils,Baden-W¨¹rttemberg,BW,G?pingen,48.7134,9.5062,10879618,5393388,5486230,35751.33,304
73066,Uhingen,Baden-W¨¹rttemberg,BW,G?pingen,48.7068,9.594,10879618,5393388,5486230,35751.33,304
73072,Donzdorf,Baden-W¨¹rttemberg,BW,G?pingen,48.687,9.8102,10879618,5393388,5486230,35751.33,304
73079,S?en,Baden-W¨¹rttemberg,BW,G?pingen,48.6779,9.7518,10879618,5393388,5486230,35751.33,304
73084,Salach,Baden-W¨¹rttemberg,BW,G?pingen,48.6833,9.7333,10879618,5393388,5486230,35751.33,304
73087,Boll,Baden-W¨¹rttemberg,BW,G?pingen,48.6447,9.6084,10879618,5393388,5486230,35751.33,304
73092,Heiningen,Baden-W¨¹rttemberg,BW,G?pingen,48.6667,9.65,10879618,5393388,5486230,35751.33,304
73095,Albershausen,Baden-W¨¹rttemberg,BW,G?pingen,48.6833,9.5667,10879618,5393388,5486230,35751.33,304
73098,Rechberghausen,Baden-W¨¹rttemberg,BW,G?pingen,48.7258,9.6426,10879618,5393388,5486230,35751.33,304
73099,Adelberg,Baden-W¨¹rttemberg,BW,G?pingen,48.7667,9.6,10879618,5393388,5486230,35751.33,304
73101,Aichelberg,Baden-W¨¹rttemberg,BW,G?pingen,48.6333,9.5667,10879618,5393388,5486230,35751.33,304
73102,Birenbach,Baden-W¨¹rttemberg,BW,G?pingen,48.75,9.6667,10879618,5393388,5486230,35751.33,304
73104,B?tlingen,Baden-W¨¹rttemberg,BW,G?pingen,48.75,9.6333,10879618,5393388,5486230,35751.33,304
73105,D?nau,Baden-W¨¹rttemberg,BW,G?pingen,48.6333,9.6333,10879618,5393388,5486230,35751.33,304
73107,Eschenbach,Baden-W¨¹rttemberg,BW,G?pingen,48.65,9.6667,10879618,5393388,5486230,35751.33,304
73108,Gammelshausen,Baden-W¨¹rttemberg,BW,G?pingen,48.6333,9.65,10879618,5393388,5486230,35751.33,304
73110,Hattenhofen,Baden-W¨¹rttemberg,BW,G?pingen,48.6667,9.5667,10879618,5393388,5486230,35751.33,304
73111,Lauterstein,Baden-W¨¹rttemberg,BW,G?pingen,48.7101,9.8651,10879618,5393388,5486230,35751.33,304
73113,Ottenbach,Baden-W¨¹rttemberg,BW,G?pingen,48.7333,9.75,10879618,5393388,5486230,35751.33,304
73114,Schlat,Baden-W¨¹rttemberg,BW,G?pingen,48.65,9.7,10879618,5393388,5486230,35751.33,304
73116,W?chenbeuren,Baden-W¨¹rttemberg,BW,G?pingen,48.7667,9.6833,10879618,5393388,5486230,35751.33,304
73117,Wangen,Baden-W¨¹rttemberg,BW,G?pingen,48.7167,9.6,10879618,5393388,5486230,35751.33,304
73119,Zell unter Aichelberg,Baden-W¨¹rttemberg,BW,G?pingen,48.65,9.5667,10879618,5393388,5486230,35751.33,304
73207,Plochingen,Baden-W¨¹rttemberg,BW,Esslingen,48.7154,9.417,10879618,5393388,5486230,35751.33,304
73230,Kirchheim unter Teck,Baden-W¨¹rttemberg,BW,Esslingen,48.6442,9.4304,10879618,5393388,5486230,35751.33,304
73235,Weilheim an der Teck,Baden-W¨¹rttemberg,BW,Esslingen,48.6206,9.541,10879618,5393388,5486230,35751.33,304
73240,Wendlingen am Neckar,Baden-W¨¹rttemberg,BW,Esslingen,48.6707,9.3811,10879618,5393388,5486230,35751.33,304
73249,Wernau,Baden-W¨¹rttemberg,BW,Esslingen,48.6808,9.4192,10879618,5393388,5486230,35751.33,304
73252,Lenningen,Baden-W¨¹rttemberg,BW,Esslingen,48.5581,9.4663,10879618,5393388,5486230,35751.33,304
73257,K?gen,Baden-W¨¹rttemberg,BW,Esslingen,48.6817,9.3691,10879618,5393388,5486230,35751.33,304
73262,Reichenbach an der Fils,Baden-W¨¹rttemberg,BW,Esslingen,48.708,9.4534,10879618,5393388,5486230,35751.33,304
73265,Dettingen unter Teck,Baden-W¨¹rttemberg,BW,Esslingen,48.6167,9.45,10879618,5393388,5486230,35751.33,304
73266,Bissingen an der Teck,Baden-W¨¹rttemberg,BW,Esslingen,48.6,9.5,10879618,5393388,5486230,35751.33,304
73268,Erkenbrechtsweiler,Baden-W¨¹rttemberg,BW,Esslingen,48.55,9.4333,10879618,5393388,5486230,35751.33,304
73269,Hochdorf,Baden-W¨¹rttemberg,BW,Esslingen,48.695,9.4615,10879618,5393388,5486230,35751.33,304
73271,Holzmaden,Baden-W¨¹rttemberg,BW,Esslingen,48.6333,9.5167,10879618,5393388,5486230,35751.33,304
73272,Neidlingen,Baden-W¨¹rttemberg,BW,Esslingen,48.5833,9.5667,10879618,5393388,5486230,35751.33,304
73274,Notzingen,Baden-W¨¹rttemberg,BW,Esslingen,48.6703,9.4575,10879618,5393388,5486230,35751.33,304
73275,Ohmden,Baden-W¨¹rttemberg,BW,Esslingen,48.65,9.5167,10879618,5393388,5486230,35751.33,304
73277,Owen,Baden-W¨¹rttemberg,BW,Esslingen,48.5833,9.45,10879618,5393388,5486230,35751.33,304
73278,Schlierbach,Baden-W¨¹rttemberg,BW,G?pingen,48.6667,9.5167,10879618,5393388,5486230,35751.33,304
73312,Geislingen an der Steige,Baden-W¨¹rttemberg,BW,G?pingen,48.6021,9.7967,10879618,5393388,5486230,35751.33,304
73326,Deggingen,Baden-W¨¹rttemberg,BW,G?pingen,48.5971,9.7317,10879618,5393388,5486230,35751.33,304
73329,Kuchen,Baden-W¨¹rttemberg,BW,G?pingen,48.6361,9.7953,10879618,5393388,5486230,35751.33,304
73333,Gingen an der Fils,Baden-W¨¹rttemberg,BW,G?pingen,48.658,9.7818,10879618,5393388,5486230,35751.33,304
73337,Bad ?erkingen,Baden-W¨¹rttemberg,BW,G?pingen,48.6,9.8,10879618,5393388,5486230,35751.33,304
73342,Bad Ditzenbach,Baden-W¨¹rttemberg,BW,G?pingen,48.5833,9.7,10879618,5393388,5486230,35751.33,304
73344,Gruibingen,Baden-W¨¹rttemberg,BW,G?pingen,48.5999,9.6445,10879618,5393388,5486230,35751.33,304
73345,Drackenstein,Baden-W¨¹rttemberg,BW,G?pingen,48.55,9.6833,10879618,5393388,5486230,35751.33,304
73347,M?lhausen im T?e,Baden-W¨¹rttemberg,BW,G?pingen,48.5667,9.65,10879618,5393388,5486230,35751.33,304
73349,Wiesensteig,Baden-W¨¹rttemberg,BW,G?pingen,48.55,9.6333,10879618,5393388,5486230,35751.33,304
73430,Aalen,Baden-W¨¹rttemberg,BW,Ostalbkreis,48.8409,10.0931,10879618,5393388,5486230,35751.33,304
73431,Aalen,Baden-W¨¹rttemberg,BW,Ostalbkreis,48.822,10.0654,10879618,5393388,5486230,35751.33,304
73432,Aalen,Baden-W¨¹rttemberg,BW,Ostalbkreis,48.8333,10.1,10879618,5393388,5486230,35751.33,304
73433,Aalen,Baden-W¨¹rttemberg,BW,Ostalbkreis,48.8641,10.1044,10879618,5393388,5486230,35751.33,304
73434,Aalen,Baden-W¨¹rttemberg,BW,Ostalbkreis,48.8333,10.1,10879618,5393388,5486230,35751.33,304
73441,Bopfingen,Baden-W¨¹rttemberg,BW,Ostalbkreis,48.8578,10.3553,10879618,5393388,5486230,35751.33,304
73447,Oberkochen,Baden-W¨¹rttemberg,BW,Ostalbkreis,48.7839,10.1055,10879618,5393388,5486230,35751.33,304
73450,Neresheim,Baden-W¨¹rttemberg,BW,Ostalbkreis,48.7756,10.3106,10879618,5393388,5486230,35751.33,304
73453,Abtsgm?d,Baden-W¨¹rttemberg,BW,Ostalbkreis,48.8833,10,10879618,5393388,5486230,35751.33,304
73457,Essingen,Baden-W¨¹rttemberg,BW,Ostalbkreis,48.8208,10.0293,10879618,5393388,5486230,35751.33,304
73460,H?tlingen,Baden-W¨¹rttemberg,BW,Ostalbkreis,48.9,10.1,10879618,5393388,5486230,35751.33,304
73463,Westhausen,Baden-W¨¹rttemberg,BW,Ostalbkreis,48.8833,10.1833,10879618,5393388,5486230,35751.33,304
73466,Lauchheim,Baden-W¨¹rttemberg,BW,Ostalbkreis,48.8667,10.25,10879618,5393388,5486230,35751.33,304
73467,Kirchheim am Ries,Baden-W¨¹rttemberg,BW,Ostalbkreis,48.8833,10.4,10879618,5393388,5486230,35751.33,304
73469,Riesb?g,Baden-W¨¹rttemberg,BW,Ostalbkreis,48.85,10.4333,10879618,5393388,5486230,35751.33,304
73479,Ellwangen (Jagst),Baden-W¨¹rttemberg,BW,Ostalbkreis,48.9623,10.1545,10879618,5393388,5486230,35751.33,304
73485,Unterschneidheim,Baden-W¨¹rttemberg,BW,Ostalbkreis,48.9333,10.3667,10879618,5393388,5486230,35751.33,304
73486,Adelmannsfelden,Baden-W¨¹rttemberg,BW,Ostalbkreis,48.95,10.0167,10879618,5393388,5486230,35751.33,304
73488,Ellenberg,Baden-W¨¹rttemberg,BW,Ostalbkreis,49.0167,10.2167,10879618,5393388,5486230,35751.33,304
73489,Jagstzell,Baden-W¨¹rttemberg,BW,Ostalbkreis,49.0262,10.0998,10879618,5393388,5486230,35751.33,304
73491,Neuler,Baden-W¨¹rttemberg,BW,Ostalbkreis,48.9248,10.0645,10879618,5393388,5486230,35751.33,304
73492,Rainau,Baden-W¨¹rttemberg,BW,Ostalbkreis,48.9333,10.15,10879618,5393388,5486230,35751.33,304
73494,Rosenberg,Baden-W¨¹rttemberg,BW,Ostalbkreis,49.0167,10.0167,10879618,5393388,5486230,35751.33,304
73495,St?tlen,Baden-W¨¹rttemberg,BW,Ostalbkreis,49,10.3,10879618,5393388,5486230,35751.33,304
73497,Tannhausen,Baden-W¨¹rttemberg,BW,Ostalbkreis,48.978,10.3581,10879618,5393388,5486230,35751.33,304
73499,W?t,Baden-W¨¹rttemberg,BW,Ostalbkreis,49.0333,10.2667,10879618,5393388,5486230,35751.33,304
73525,Schw?isch Gm?d,Baden-W¨¹rttemberg,BW,Ostalbkreis,48.7989,9.7989,10879618,5393388,5486230,35751.33,304
73527,T?errot,Baden-W¨¹rttemberg,BW,Ostalbkreis,48.85,9.8333,10879618,5393388,5486230,35751.33,304
73529,Schw?isch Gm?d,Baden-W¨¹rttemberg,BW,Ostalbkreis,48.7852,9.8176,10879618,5393388,5486230,35751.33,304
73540,Heubach,Baden-W¨¹rttemberg,BW,Ostalbkreis,48.7891,9.9336,10879618,5393388,5486230,35751.33,304
73547,Lorch,Baden-W¨¹rttemberg,BW,Ostalbkreis,48.7955,9.7034,10879618,5393388,5486230,35751.33,304
73550,Waldstetten,Baden-W¨¹rttemberg,BW,Ostalbkreis,48.7325,9.8135,10879618,5393388,5486230,35751.33,304
73553,Alfdorf,Baden-W¨¹rttemberg,BW,Rems-Murr-Kreis,48.85,9.7167,10879618,5393388,5486230,35751.33,304
73557,Mutlangen,Baden-W¨¹rttemberg,BW,Ostalbkreis,48.8167,9.8,10879618,5393388,5486230,35751.33,304
73560,B?ingen an der Rems,Baden-W¨¹rttemberg,BW,Ostalbkreis,48.8198,9.9175,10879618,5393388,5486230,35751.33,304
73563,M?glingen,Baden-W¨¹rttemberg,BW,Ostalbkreis,48.8167,9.9667,10879618,5393388,5486230,35751.33,304
73565,Spraitbach,Baden-W¨¹rttemberg,BW,Ostalbkreis,48.8833,9.7667,10879618,5393388,5486230,35751.33,304
73566,Bartholom?Baden-W¨¹rttemberg,BW,Ostalbkreis,48.75,9.9833,,#N/A,#N/A,#N/A,#N/A,#N/A
73568,Durlangen,Baden-W¨¹rttemberg,BW,Ostalbkreis,48.85,9.8,10879618,5393388,5486230,35751.33,304
73569,Obergr?ingen,Baden-W¨¹rttemberg,BW,Ostalbkreis,48.9,9.9167,10879618,5393388,5486230,35751.33,304
73571,G?gingen,Baden-W¨¹rttemberg,BW,Ostalbkreis,48.8667,9.8833,10879618,5393388,5486230,35751.33,304
73572,Heuchlingen,Baden-W¨¹rttemberg,BW,Ostalbkreis,48.85,9.95,10879618,5393388,5486230,35751.33,304
73574,Iggingen,Baden-W¨¹rttemberg,BW,Ostalbkreis,48.8333,9.8833,10879618,5393388,5486230,35751.33,304
73575,Leinzell,Baden-W¨¹rttemberg,BW,Ostalbkreis,48.85,9.8833,10879618,5393388,5486230,35751.33,304
73577,Ruppertshofen,Baden-W¨¹rttemberg,BW,Ostalbkreis,48.8833,9.8167,10879618,5393388,5486230,35751.33,304
73579,Schechingen,Baden-W¨¹rttemberg,BW,Ostalbkreis,48.8667,9.9167,10879618,5393388,5486230,35751.33,304
73614,Schorndorf,Baden-W¨¹rttemberg,BW,Rems-Murr-Kreis,48.808,9.5233,10879618,5393388,5486230,35751.33,304
73630,Remshalden,Baden-W¨¹rttemberg,BW,Rems-Murr-Kreis,48.8151,9.4239,10879618,5393388,5486230,35751.33,304
73635,Rudersberg,Baden-W¨¹rttemberg,BW,Rems-Murr-Kreis,48.8814,9.5296,10879618,5393388,5486230,35751.33,304
73642,Welzheim,Baden-W¨¹rttemberg,BW,Rems-Murr-Kreis,48.8833,9.65,10879618,5393388,5486230,35751.33,304
73650,Winterbach,Baden-W¨¹rttemberg,BW,Rems-Murr-Kreis,48.803,9.4791,10879618,5393388,5486230,35751.33,304
73655,Pl?erhausen,Baden-W¨¹rttemberg,BW,Rems-Murr-Kreis,48.7993,9.5946,10879618,5393388,5486230,35751.33,304
73660,Urbach,Baden-W¨¹rttemberg,BW,Rems-Murr-Kreis,48.8088,9.572,10879618,5393388,5486230,35751.33,304
73663,Berglen,Baden-W¨¹rttemberg,BW,Rems-Murr-Kreis,48.8667,9.4667,10879618,5393388,5486230,35751.33,304
73666,Baltmannsweiler,Baden-W¨¹rttemberg,BW,Esslingen,48.7333,9.45,10879618,5393388,5486230,35751.33,304
73667,Kaisersbach,Baden-W¨¹rttemberg,BW,Rems-Murr-Kreis,48.9333,9.65,10879618,5393388,5486230,35751.33,304
73669,Lichtenwald,Baden-W¨¹rttemberg,BW,Esslingen,48.75,9.4833,10879618,5393388,5486230,35751.33,304
73728,Esslingen am Neckar,Baden-W¨¹rttemberg,BW,Esslingen,48.7394,9.3061,10879618,5393388,5486230,35751.33,304
73730,Esslingen am Neckar,Baden-W¨¹rttemberg,BW,Esslingen,48.7323,9.3255,10879618,5393388,5486230,35751.33,304
73732,Esslingen am Neckar,Baden-W¨¹rttemberg,BW,Esslingen,48.769,9.3122,10879618,5393388,5486230,35751.33,304
73733,Esslingen am Neckar,Baden-W¨¹rttemberg,BW,Esslingen,48.75,9.3,10879618,5393388,5486230,35751.33,304
73734,Esslingen am Neckar,Baden-W¨¹rttemberg,BW,Esslingen,48.7361,9.2977,10879618,5393388,5486230,35751.33,304
73760,Ostfildern,Baden-W¨¹rttemberg,BW,Esslingen,48.7216,9.2751,10879618,5393388,5486230,35751.33,304
73765,Neuhausen auf den Fildern,Baden-W¨¹rttemberg,BW,Esslingen,48.6833,9.2833,10879618,5393388,5486230,35751.33,304
73770,Denkendorf,Baden-W¨¹rttemberg,BW,Esslingen,48.6882,9.3232,10879618,5393388,5486230,35751.33,304
73773,Aichwald,Baden-W¨¹rttemberg,BW,Esslingen,48.7502,9.387,10879618,5393388,5486230,35751.33,304
73776,Altbach,Baden-W¨¹rttemberg,BW,Esslingen,48.7225,9.379,10879618,5393388,5486230,35751.33,304
73779,Deizisau,Baden-W¨¹rttemberg,BW,Esslingen,48.7142,9.378,10879618,5393388,5486230,35751.33,304
74072,Heilbronn,Baden-W¨¹rttemberg,BW,Heilbronn,49.1423,9.2234,10879618,5393388,5486230,35751.33,304
74074,Heilbronn,Baden-W¨¹rttemberg,BW,Heilbronn,49.1286,9.2214,10879618,5393388,5486230,35751.33,304
74076,Heilbronn,Baden-W¨¹rttemberg,BW,Heilbronn,49.1618,9.2193,10879618,5393388,5486230,35751.33,304
74078,Heilbronn,Baden-W¨¹rttemberg,BW,Heilbronn,49.1566,9.1746,10879618,5393388,5486230,35751.33,304
74080,Heilbronn,Baden-W¨¹rttemberg,BW,Heilbronn,49.1386,9.1954,10879618,5393388,5486230,35751.33,304
74081,Heilbronn,Baden-W¨¹rttemberg,BW,Heilbronn,49.1236,9.197,10879618,5393388,5486230,35751.33,304
74172,Neckarsulm,Baden-W¨¹rttemberg,BW,Heilbronn,49.1902,9.2192,10879618,5393388,5486230,35751.33,304
74177,Bad Friedrichshall,Baden-W¨¹rttemberg,BW,Heilbronn,49.2344,9.2145,10879618,5393388,5486230,35751.33,304
74182,Obersulm,Baden-W¨¹rttemberg,BW,Heilbronn,49.1361,9.3774,10879618,5393388,5486230,35751.33,304
74189,Weinsberg,Baden-W¨¹rttemberg,BW,Heilbronn,49.1495,9.2983,10879618,5393388,5486230,35751.33,304
74193,Schwaigern,Baden-W¨¹rttemberg,BW,Heilbronn,49.1419,9.042,10879618,5393388,5486230,35751.33,304
74196,Neuenstadt am Kocher,Baden-W¨¹rttemberg,BW,Heilbronn,49.2377,9.3424,10879618,5393388,5486230,35751.33,304
74199,Untergruppenbach,Baden-W¨¹rttemberg,BW,Heilbronn,49.0914,9.2739,10879618,5393388,5486230,35751.33,304
74206,Bad Wimpfen,Baden-W¨¹rttemberg,BW,Heilbronn,49.2293,9.1613,10879618,5393388,5486230,35751.33,304
74211,Leingarten,Baden-W¨¹rttemberg,BW,Heilbronn,49.1474,9.1089,10879618,5393388,5486230,35751.33,304
74214,Sch?tal,Baden-W¨¹rttemberg,BW,Hohenlohekreis,49.3524,9.5088,10879618,5393388,5486230,35751.33,304
74219,M?km?l,Baden-W¨¹rttemberg,BW,Heilbronn,49.325,9.3578,10879618,5393388,5486230,35751.33,304
74223,Flein,Baden-W¨¹rttemberg,BW,Heilbronn,49.1031,9.2108,10879618,5393388,5486230,35751.33,304
74226,Nordheim,Baden-W¨¹rttemberg,BW,Heilbronn,49.1063,9.1219,10879618,5393388,5486230,35751.33,304
74229,Oedheim,Baden-W¨¹rttemberg,BW,Heilbronn,49.2403,9.2533,10879618,5393388,5486230,35751.33,304
74232,Abstatt,Baden-W¨¹rttemberg,BW,Heilbronn,49.0711,9.2928,10879618,5393388,5486230,35751.33,304
74235,Erlenbach,Baden-W¨¹rttemberg,BW,Heilbronn,49.1725,9.2683,10879618,5393388,5486230,35751.33,304
74238,Krautheim,Baden-W¨¹rttemberg,BW,Hohenlohekreis,49.3864,9.6339,10879618,5393388,5486230,35751.33,304
74239,Hardthausen am Kocher,Baden-W¨¹rttemberg,BW,Heilbronn,49.2586,9.3894,10879618,5393388,5486230,35751.33,304
74243,Langenbrettach,Baden-W¨¹rttemberg,BW,Heilbronn,49.2169,9.4049,10879618,5393388,5486230,35751.33,304
74245,L?enstein,Baden-W¨¹rttemberg,BW,Heilbronn,49.0994,9.3814,10879618,5393388,5486230,35751.33,304
74246,Eberstadt,Baden-W¨¹rttemberg,BW,Heilbronn,49.1803,9.3211,10879618,5393388,5486230,35751.33,304
74248,Ellhofen,Baden-W¨¹rttemberg,BW,Heilbronn,49.1495,9.3093,10879618,5393388,5486230,35751.33,304
74249,Jagsthausen,Baden-W¨¹rttemberg,BW,Heilbronn,49.3106,9.4683,10879618,5393388,5486230,35751.33,304
74251,Lehrensteinsfeld,Baden-W¨¹rttemberg,BW,Heilbronn,49.1311,9.3272,10879618,5393388,5486230,35751.33,304
74252,Massenbachhausen,Baden-W¨¹rttemberg,BW,Heilbronn,49.1778,9.0433,10879618,5393388,5486230,35751.33,304
74254,Offenau,Baden-W¨¹rttemberg,BW,Heilbronn,49.2458,9.1606,10879618,5393388,5486230,35751.33,304
74255,Roigheim,Baden-W¨¹rttemberg,BW,Heilbronn,49.3647,9.34,10879618,5393388,5486230,35751.33,304
74257,Untereisesheim,Baden-W¨¹rttemberg,BW,Heilbronn,49.2111,9.2019,10879618,5393388,5486230,35751.33,304
74259,Widdern,Baden-W¨¹rttemberg,BW,Heilbronn,49.3266,9.4196,10879618,5393388,5486230,35751.33,304
74321,Bietigheim-Bissingen,Baden-W¨¹rttemberg,BW,Ludwigsburg,48.9667,9.1333,10879618,5393388,5486230,35751.33,304
74336,Brackenheim,Baden-W¨¹rttemberg,BW,Heilbronn,49.0746,9.0682,10879618,5393388,5486230,35751.33,304
74337,Botenheim,Baden-W¨¹rttemberg,BW,Heilbronn,49.0667,9.0653,10879618,5393388,5486230,35751.33,304
74343,Sachsenheim,Baden-W¨¹rttemberg,BW,Ludwigsburg,48.9584,9.0708,10879618,5393388,5486230,35751.33,304
74348,Lauffen am Neckar,Baden-W¨¹rttemberg,BW,Heilbronn,49.069,9.1313,10879618,5393388,5486230,35751.33,304
74354,Besigheim,Baden-W¨¹rttemberg,BW,Ludwigsburg,48.9957,9.1412,10879618,5393388,5486230,35751.33,304
74357,B?nigheim,Baden-W¨¹rttemberg,BW,Ludwigsburg,49.0387,9.0942,10879618,5393388,5486230,35751.33,304
74360,Ilsfeld,Baden-W¨¹rttemberg,BW,Heilbronn,49.0555,9.2543,10879618,5393388,5486230,35751.33,304
74363,G?lingen,Baden-W¨¹rttemberg,BW,Heilbronn,49.0697,8.9944,10879618,5393388,5486230,35751.33,304
74366,Kirchheim am Neckar,Baden-W¨¹rttemberg,BW,Ludwigsburg,49.045,9.1422,10879618,5393388,5486230,35751.33,304
74369,L?hgau,Baden-W¨¹rttemberg,BW,Ludwigsburg,49.0043,9.1044,10879618,5393388,5486230,35751.33,304
74372,Sersheim,Baden-W¨¹rttemberg,BW,Ludwigsburg,48.9639,9.0123,10879618,5393388,5486230,35751.33,304
74374,Zaberfeld,Baden-W¨¹rttemberg,BW,Heilbronn,49.0561,8.9269,10879618,5393388,5486230,35751.33,304
74376,Gemmrigheim,Baden-W¨¹rttemberg,BW,Ludwigsburg,49.0283,9.1556,10879618,5393388,5486230,35751.33,304
74379,Ingersheim,Baden-W¨¹rttemberg,BW,Ludwigsburg,48.9611,9.1761,10879618,5393388,5486230,35751.33,304
74382,Neckarwestheim,Baden-W¨¹rttemberg,BW,Heilbronn,49.0469,9.19,10879618,5393388,5486230,35751.33,304
74385,Pleidelsheim,Baden-W¨¹rttemberg,BW,Ludwigsburg,48.9602,9.2058,10879618,5393388,5486230,35751.33,304
74388,Talheim,Baden-W¨¹rttemberg,BW,Heilbronn,49.0833,9.1931,10879618,5393388,5486230,35751.33,304
74389,Cleebronn,Baden-W¨¹rttemberg,BW,Heilbronn,49.045,9.0369,10879618,5393388,5486230,35751.33,304
74391,Erligheim,Baden-W¨¹rttemberg,BW,Ludwigsburg,49.0225,9.0972,10879618,5393388,5486230,35751.33,304
74392,Freudental,Baden-W¨¹rttemberg,BW,Ludwigsburg,49.0065,9.0564,10879618,5393388,5486230,35751.33,304
74394,Hessigheim,Baden-W¨¹rttemberg,BW,Ludwigsburg,48.9833,9.2,10879618,5393388,5486230,35751.33,304
74395,Mundelsheim,Baden-W¨¹rttemberg,BW,Ludwigsburg,49.0008,9.2078,10879618,5393388,5486230,35751.33,304
74397,Pfaffenhofen,Baden-W¨¹rttemberg,BW,Heilbronn,49.0636,8.975,10879618,5393388,5486230,35751.33,304
74399,Walheim,Baden-W¨¹rttemberg,BW,Ludwigsburg,49.0142,9.1511,10879618,5393388,5486230,35751.33,304
74405,Gaildorf,Baden-W¨¹rttemberg,BW,Schw?isch Hall,49.003,9.7557,10879618,5393388,5486230,35751.33,304
74417,Gschwend,Baden-W¨¹rttemberg,BW,Ostalbkreis,48.9304,9.741,10879618,5393388,5486230,35751.33,304
74420,Oberrot,Baden-W¨¹rttemberg,BW,Schw?isch Hall,49.0144,9.6672,10879618,5393388,5486230,35751.33,304
74423,Obersontheim,Baden-W¨¹rttemberg,BW,Schw?isch Hall,49.0614,9.8937,10879618,5393388,5486230,35751.33,304
74424,B?lertann,Baden-W¨¹rttemberg,BW,Schw?isch Hall,49.0417,9.9086,10879618,5393388,5486230,35751.33,304
74426,B?lerzell,Baden-W¨¹rttemberg,BW,Schw?isch Hall,49.0033,9.9206,10879618,5393388,5486230,35751.33,304
74427,Fichtenberg,Baden-W¨¹rttemberg,BW,Schw?isch Hall,48.9833,9.7167,10879618,5393388,5486230,35751.33,304
74429,Sulzbach-Laufen,Baden-W¨¹rttemberg,BW,Schw?isch Hall,48.9667,9.85,10879618,5393388,5486230,35751.33,304
74523,Schw?isch Hall,Baden-W¨¹rttemberg,BW,Schw?isch Hall,49.1067,9.7741,10879618,5393388,5486230,35751.33,304
74532,Ilshofen,Baden-W¨¹rttemberg,BW,Schw?isch Hall,49.17,9.9189,10879618,5393388,5486230,35751.33,304
74535,Mainhardt,Baden-W¨¹rttemberg,BW,Schw?isch Hall,49.0761,9.5564,10879618,5393388,5486230,35751.33,304
74538,Rosengarten,Baden-W¨¹rttemberg,BW,Schw?isch Hall,49.0833,9.7,10879618,5393388,5486230,35751.33,304
74541,Vellberg,Baden-W¨¹rttemberg,BW,Schw?isch Hall,49.0861,9.8806,10879618,5393388,5486230,35751.33,304
74542,Braunsbach,Baden-W¨¹rttemberg,BW,Schw?isch Hall,49.1992,9.7906,10879618,5393388,5486230,35751.33,304
74544,Michelbach an der Bilz,Baden-W¨¹rttemberg,BW,Schw?isch Hall,49.0703,9.7625,10879618,5393388,5486230,35751.33,304
74545,Michelfeld,Baden-W¨¹rttemberg,BW,Schw?isch Hall,49.118,9.6433,10879618,5393388,5486230,35751.33,304
74547,Unterm?kheim,Baden-W¨¹rttemberg,BW,Schw?isch Hall,49.1526,9.7337,10879618,5393388,5486230,35751.33,304
74549,Wolpertshausen,Baden-W¨¹rttemberg,BW,Schw?isch Hall,49.1675,9.8447,10879618,5393388,5486230,35751.33,304
74564,Crailsheim,Baden-W¨¹rttemberg,BW,Schw?isch Hall,49.136,10.0613,10879618,5393388,5486230,35751.33,304
74572,Blaufelden,Baden-W¨¹rttemberg,BW,Schw?isch Hall,49.2967,9.9693,10879618,5393388,5486230,35751.33,304
74575,Schrozberg,Baden-W¨¹rttemberg,BW,Schw?isch Hall,49.3444,9.9886,10879618,5393388,5486230,35751.33,304
74579,Fichtenau,Baden-W¨¹rttemberg,BW,Schw?isch Hall,49.0667,10.2167,10879618,5393388,5486230,35751.33,304
74582,Gerabronn,Baden-W¨¹rttemberg,BW,Schw?isch Hall,49.2511,9.9214,10879618,5393388,5486230,35751.33,304
74585,Rot am See,Baden-W¨¹rttemberg,BW,Schw?isch Hall,49.25,10.0167,10879618,5393388,5486230,35751.33,304
74586,Frankenhardt,Baden-W¨¹rttemberg,BW,Schw?isch Hall,49.0833,9.9833,10879618,5393388,5486230,35751.33,304
74589,Satteldorf,Baden-W¨¹rttemberg,BW,Schw?isch Hall,49.1815,10.0688,10879618,5393388,5486230,35751.33,304
74592,Kirchberg an der Jagst,Baden-W¨¹rttemberg,BW,Schw?isch Hall,49.1912,9.9754,10879618,5393388,5486230,35751.33,304
74594,Kre?erg,Baden-W¨¹rttemberg,BW,Schw?isch Hall,49.1333,10.1833,10879618,5393388,5486230,35751.33,304
74595,Langenburg,Baden-W¨¹rttemberg,BW,Schw?isch Hall,49.2544,9.8458,10879618,5393388,5486230,35751.33,304
74597,Stimpfach,Baden-W¨¹rttemberg,BW,Schw?isch Hall,49.0667,10.0833,10879618,5393388,5486230,35751.33,304
74599,Wallhausen,Baden-W¨¹rttemberg,BW,Schw?isch Hall,49.2167,10.0667,10879618,5393388,5486230,35751.33,304
74613,?ringen,Baden-W¨¹rttemberg,BW,Hohenlohekreis,49.2012,9.5022,10879618,5393388,5486230,35751.33,304
74626,Bretzfeld,Baden-W¨¹rttemberg,BW,Hohenlohekreis,49.1794,9.4383,10879618,5393388,5486230,35751.33,304
74629,Pfedelbach,Baden-W¨¹rttemberg,BW,Hohenlohekreis,49.1781,9.505,10879618,5393388,5486230,35751.33,304
74632,Neuenstein,Baden-W¨¹rttemberg,BW,Hohenlohekreis,49.2148,9.5972,10879618,5393388,5486230,35751.33,304
74635,Kupferzell,Baden-W¨¹rttemberg,BW,Hohenlohekreis,49.2277,9.6922,10879618,5393388,5486230,35751.33,304
74638,Waldenburg,Baden-W¨¹rttemberg,BW,Hohenlohekreis,49.1875,9.6422,10879618,5393388,5486230,35751.33,304
74639,Zweiflingen,Baden-W¨¹rttemberg,BW,Hohenlohekreis,49.2564,9.5181,10879618,5393388,5486230,35751.33,304
74653,K?zelsau,Baden-W¨¹rttemberg,BW,Hohenlohekreis,49.2808,9.6838,10879618,5393388,5486230,35751.33,304
74670,Forchtenberg,Baden-W¨¹rttemberg,BW,Hohenlohekreis,49.2883,9.5628,10879618,5393388,5486230,35751.33,304
74673,Mulfingen,Baden-W¨¹rttemberg,BW,Hohenlohekreis,49.3403,9.8008,10879618,5393388,5486230,35751.33,304
74676,Niedernhall,Baden-W¨¹rttemberg,BW,Hohenlohekreis,49.2914,9.6217,10879618,5393388,5486230,35751.33,304
74677,D?zbach,Baden-W¨¹rttemberg,BW,Hohenlohekreis,49.3866,9.7052,10879618,5393388,5486230,35751.33,304
74679,Wei?ach,Baden-W¨¹rttemberg,BW,Hohenlohekreis,49.2961,9.5946,10879618,5393388,5486230,35751.33,304
74744,Ahorn,Baden-W¨¹rttemberg,BW,Main-Tauber-Kreis,49.5083,9.5269,10879618,5393388,5486230,35751.33,304
74831,Gundelsheim,Baden-W¨¹rttemberg,BW,Heilbronn,49.283,9.1763,10879618,5393388,5486230,35751.33,304
74832,Bachenau,Baden-W¨¹rttemberg,BW,Heilbronn,49.2811,9.1914,10879618,5393388,5486230,35751.33,304
74861,Neudenau,Baden-W¨¹rttemberg,BW,Heilbronn,49.2898,9.2691,10879618,5393388,5486230,35751.33,304
74906,Bad Rappenau,Baden-W¨¹rttemberg,BW,Heilbronn,49.2244,9.0807,10879618,5393388,5486230,35751.33,304
74912,Kirchardt,Baden-W¨¹rttemberg,BW,Heilbronn,49.2069,8.992,10879618,5393388,5486230,35751.33,304
74930,Ittlingen,Baden-W¨¹rttemberg,BW,Heilbronn,49.1908,8.9308,10879618,5393388,5486230,35751.33,304
74936,Siegelsbach,Baden-W¨¹rttemberg,BW,Heilbronn,49.2697,9.0897,10879618,5393388,5486230,35751.33,304
75031,Eppingen,Baden-W¨¹rttemberg,BW,Heilbronn,49.1336,8.9097,10879618,5393388,5486230,35751.33,304
75050,Gemmingen,Baden-W¨¹rttemberg,BW,Heilbronn,49.1564,8.9819,10879618,5393388,5486230,35751.33,304
75392,Deckenpfronn,Baden-W¨¹rttemberg,BW,B?lingen,48.65,8.8167,10879618,5393388,5486230,35751.33,304
89168,Niederstotzingen,Baden-W¨¹rttemberg,BW,Heidenheim,48.5324,10.2355,10879618,5393388,5486230,35751.33,304
89518,Heidenheim an der Brenz,Baden-W¨¹rttemberg,BW,Heidenheim,48.6785,10.1413,10879618,5393388,5486230,35751.33,304
89520,Heidenheim an der Brenz,Baden-W¨¹rttemberg,BW,Heidenheim,48.6873,10.1601,10879618,5393388,5486230,35751.33,304
89522,Heidenheim an der Brenz,Baden-W¨¹rttemberg,BW,Heidenheim,48.6833,10.15,10879618,5393388,5486230,35751.33,304
89537,Giengen an der Brenz,Baden-W¨¹rttemberg,BW,Heidenheim,48.5887,10.2058,10879618,5393388,5486230,35751.33,304
89542,Herbrechtingen,Baden-W¨¹rttemberg,BW,Heidenheim,48.6218,10.1757,10879618,5393388,5486230,35751.33,304
89547,Gerstetten,Baden-W¨¹rttemberg,BW,Heidenheim,48.6246,10.0195,10879618,5393388,5486230,35751.33,304
89551,K?igsbronn,Baden-W¨¹rttemberg,BW,Heidenheim,48.7406,10.1152,10879618,5393388,5486230,35751.33,304
89555,Steinheim am Albuch,Baden-W¨¹rttemberg,BW,Heidenheim,48.6927,10.0412,10879618,5393388,5486230,35751.33,304
89558,B?menkirch,Baden-W¨¹rttemberg,BW,G?pingen,48.6833,9.9333,10879618,5393388,5486230,35751.33,304
89561,Dischingen,Baden-W¨¹rttemberg,BW,Heidenheim,48.7,10.3667,10879618,5393388,5486230,35751.33,304
89564,Nattheim,Baden-W¨¹rttemberg,BW,Heidenheim,48.6994,10.2413,10879618,5393388,5486230,35751.33,304
89567,Sontheim an der Brenz,Baden-W¨¹rttemberg,BW,Heidenheim,48.55,10.2833,10879618,5393388,5486230,35751.33,304
89568,Hermaringen,Baden-W¨¹rttemberg,BW,Heidenheim,48.6,10.2667,10879618,5393388,5486230,35751.33,304
97877,Wertheim,Baden-W¨¹rttemberg,BW,Main-Tauber-Kreis,49.7539,9.5154,10879618,5393388,5486230,35751.33,304
97896,Freudenberg,Baden-W¨¹rttemberg,BW,Main-Tauber-Kreis,49.745,9.3292,10879618,5393388,5486230,35751.33,304
97900,K?sheim,Baden-W¨¹rttemberg,BW,Main-Tauber-Kreis,49.6674,9.5137,10879618,5393388,5486230,35751.33,304
97922,Lauda-K?igshofen,Baden-W¨¹rttemberg,BW,Main-Tauber-Kreis,49.5653,9.7042,10879618,5393388,5486230,35751.33,304
97941,Tauberbischofsheim,Baden-W¨¹rttemberg,BW,Main-Tauber-Kreis,49.6229,9.6658,10879618,5393388,5486230,35751.33,304
97944,Boxberg,Baden-W¨¹rttemberg,BW,Main-Tauber-Kreis,49.4882,9.6647,10879618,5393388,5486230,35751.33,304
97947,Gr?sfeld,Baden-W¨¹rttemberg,BW,Main-Tauber-Kreis,49.6221,9.7627,10879618,5393388,5486230,35751.33,304
97950,Gro?inderfeld,Baden-W¨¹rttemberg,BW,Main-Tauber-Kreis,49.65,9.75,10879618,5393388,5486230,35751.33,304
97953,K?igheim,Baden-W¨¹rttemberg,BW,Main-Tauber-Kreis,49.6203,9.5958,10879618,5393388,5486230,35751.33,304
97956,Werbach,Baden-W¨¹rttemberg,BW,Main-Tauber-Kreis,49.6708,9.6394,10879618,5393388,5486230,35751.33,304
97957,Wittighausen,Baden-W¨¹rttemberg,BW,Main-Tauber-Kreis,49.6192,9.8422,10879618,5393388,5486230,35751.33,304
97959,Assamstadt,Baden-W¨¹rttemberg,BW,Main-Tauber-Kreis,49.4281,9.6861,10879618,5393388,5486230,35751.33,304
97980,Bad Mergentheim,Baden-W¨¹rttemberg,BW,Main-Tauber-Kreis,49.4763,9.7727,10879618,5393388,5486230,35751.33,304
97990,Weikersheim,Baden-W¨¹rttemberg,BW,Main-Tauber-Kreis,49.4851,9.8997,10879618,5393388,5486230,35751.33,304
97993,Creglingen,Baden-W¨¹rttemberg,BW,Main-Tauber-Kreis,49.4684,10.0331,10879618,5393388,5486230,35751.33,304
97996,Niederstetten,Baden-W¨¹rttemberg,BW,Main-Tauber-Kreis,49.4066,9.9153,10879618,5393388,5486230,35751.33,304
97999,Igersheim,Baden-W¨¹rttemberg,BW,Main-Tauber-Kreis,49.4944,9.8169,10879618,5393388,5486230,35751.33,304
68159,Mannheim,Baden-W¨¹rttemberg,BW,Mannheim,49.4934,8.4653,10879618,5393388,5486230,35751.33,304
68161,Mannheim,Baden-W¨¹rttemberg,BW,Mannheim,49.4874,8.4696,10879618,5393388,5486230,35751.33,304
68163,Mannheim,Baden-W¨¹rttemberg,BW,Mannheim,49.4883,8.4647,10879618,5393388,5486230,35751.33,304
68165,Mannheim,Baden-W¨¹rttemberg,BW,Mannheim,49.4772,8.4818,10879618,5393388,5486230,35751.33,304
68167,Mannheim,Baden-W¨¹rttemberg,BW,Mannheim,49.4996,8.4938,10879618,5393388,5486230,35751.33,304
68169,Mannheim,Baden-W¨¹rttemberg,BW,Mannheim,49.503,8.4693,10879618,5393388,5486230,35751.33,304
68199,Mannheim,Baden-W¨¹rttemberg,BW,Mannheim,49.4598,8.4881,10879618,5393388,5486230,35751.33,304
68219,Mannheim,Baden-W¨¹rttemberg,BW,Mannheim,49.4883,8.4647,10879618,5393388,5486230,35751.33,304
68229,Mannheim,Baden-W¨¹rttemberg,BW,Mannheim,49.4883,8.4647,10879618,5393388,5486230,35751.33,304
68239,Mannheim,Baden-W¨¹rttemberg,BW,Mannheim,49.4883,8.4647,10879618,5393388,5486230,35751.33,304
68259,Mannheim,Baden-W¨¹rttemberg,BW,Mannheim,49.4902,8.5339,10879618,5393388,5486230,35751.33,304
68305,Mannheim,Baden-W¨¹rttemberg,BW,Mannheim,49.5257,8.4965,10879618,5393388,5486230,35751.33,304
68307,Mannheim,Baden-W¨¹rttemberg,BW,Mannheim,49.5462,8.4488,10879618,5393388,5486230,35751.33,304
68309,Mannheim,Baden-W¨¹rttemberg,BW,Mannheim,49.5121,8.5316,10879618,5393388,5486230,35751.33,304
68526,Ladenburg,Baden-W¨¹rttemberg,BW,Rhein-Neckar-Kreis,49.475,8.6069,10879618,5393388,5486230,35751.33,304
68535,Edingen-Neckarhausen,Baden-W¨¹rttemberg,BW,Rhein-Neckar-Kreis,49.4572,8.6064,10879618,5393388,5486230,35751.33,304
68542,Heddesheim,Baden-W¨¹rttemberg,BW,Rhein-Neckar-Kreis,49.5092,8.5981,10879618,5393388,5486230,35751.33,304
68549,Ilvesheim,Baden-W¨¹rttemberg,BW,Rhein-Neckar-Kreis,49.4808,8.5619,10879618,5393388,5486230,35751.33,304
68723,Oftersheim,Baden-W¨¹rttemberg,BW,Rhein-Neckar-Kreis,49.3653,8.5831,10879618,5393388,5486230,35751.33,304
68753,Wagh?sel,Baden-W¨¹rttemberg,BW,Karlsruhe,49.2458,8.5349,10879618,5393388,5486230,35751.33,304
68766,Hockenheim,Baden-W¨¹rttemberg,BW,Rhein-Neckar-Kreis,49.3299,8.5571,10879618,5393388,5486230,35751.33,304
68775,Ketsch,Baden-W¨¹rttemberg,BW,Rhein-Neckar-Kreis,49.3552,8.5275,10879618,5393388,5486230,35751.33,304
68782,Br?l,Baden-W¨¹rttemberg,BW,Rhein-Neckar-Kreis,49.4027,8.5381,10879618,5393388,5486230,35751.33,304
68789,Sankt Leon-Rot,Baden-W¨¹rttemberg,BW,Rhein-Neckar-Kreis,49.2664,8.6167,10879618,5393388,5486230,35751.33,304
68794,Oberhausen-Rheinhausen,Baden-W¨¹rttemberg,BW,Karlsruhe,49.2739,8.4717,10879618,5393388,5486230,35751.33,304
68799,Reilingen,Baden-W¨¹rttemberg,BW,Rhein-Neckar-Kreis,49.2922,8.5649,10879618,5393388,5486230,35751.33,304
68804,Altlu?eim,Baden-W¨¹rttemberg,BW,Rhein-Neckar-Kreis,49.3017,8.4992,10879618,5393388,5486230,35751.33,304
68809,Neulu?eim,Baden-W¨¹rttemberg,BW,Rhein-Neckar-Kreis,49.2981,8.5183,10879618,5393388,5486230,35751.33,304
69115,Heidelberg,Baden-W¨¹rttemberg,BW,Heidelberg,49.4062,8.6868,10879618,5393388,5486230,35751.33,304
69117,Heidelberg,Baden-W¨¹rttemberg,BW,Heidelberg,49.4095,8.6935,10879618,5393388,5486230,35751.33,304
69118,Heidelberg,Baden-W¨¹rttemberg,BW,Heidelberg,49.4194,8.7345,10879618,5393388,5486230,35751.33,304
69120,Heidelberg,Baden-W¨¹rttemberg,BW,Heidelberg,49.4169,8.6764,10879618,5393388,5486230,35751.33,304
69121,Heidelberg,Baden-W¨¹rttemberg,BW,Heidelberg,49.4322,8.6824,10879618,5393388,5486230,35751.33,304
69123,Heidelberg,Baden-W¨¹rttemberg,BW,Heidelberg,49.4167,8.7,10879618,5393388,5486230,35751.33,304
69124,Heidelberg,Baden-W¨¹rttemberg,BW,Heidelberg,49.3829,8.6656,10879618,5393388,5486230,35751.33,304
69126,Heidelberg,Baden-W¨¹rttemberg,BW,Heidelberg,49.3757,8.6911,10879618,5393388,5486230,35751.33,304
69151,Neckargem?d,Baden-W¨¹rttemberg,BW,Rhein-Neckar-Kreis,49.3936,8.7856,10879618,5393388,5486230,35751.33,304
69168,Wiesloch,Baden-W¨¹rttemberg,BW,Rhein-Neckar-Kreis,49.2946,8.6964,10879618,5393388,5486230,35751.33,304
69181,Leimen,Baden-W¨¹rttemberg,BW,Rhein-Neckar-Kreis,49.3517,8.6846,10879618,5393388,5486230,35751.33,304
69190,Walldorf,Baden-W¨¹rttemberg,BW,Rhein-Neckar-Kreis,49.3008,8.6442,10879618,5393388,5486230,35751.33,304
69198,Schriesheim,Baden-W¨¹rttemberg,BW,Rhein-Neckar-Kreis,49.4706,8.6604,10879618,5393388,5486230,35751.33,304
69207,Sandhausen,Baden-W¨¹rttemberg,BW,Rhein-Neckar-Kreis,49.3548,8.6498,10879618,5393388,5486230,35751.33,304
69214,Eppelheim,Baden-W¨¹rttemberg,BW,Rhein-Neckar-Kreis,49.4025,8.6331,10879618,5393388,5486230,35751.33,304
69221,Dossenheim,Baden-W¨¹rttemberg,BW,Rhein-Neckar-Kreis,49.4503,8.6747,10879618,5393388,5486230,35751.33,304
69226,Nu?och,Baden-W¨¹rttemberg,BW,Rhein-Neckar-Kreis,49.3262,8.6872,10879618,5393388,5486230,35751.33,304
69231,Rauenberg,Baden-W¨¹rttemberg,BW,Rhein-Neckar-Kreis,49.2722,8.6985,10879618,5393388,5486230,35751.33,304
69234,Dielheim,Baden-W¨¹rttemberg,BW,Rhein-Neckar-Kreis,49.2842,8.7381,10879618,5393388,5486230,35751.33,304
69242,M?lhausen,Baden-W¨¹rttemberg,BW,Rhein-Neckar-Kreis,49.2486,8.7267,10879618,5393388,5486230,35751.33,304
69245,Bammental,Baden-W¨¹rttemberg,BW,Rhein-Neckar-Kreis,49.3561,8.7794,10879618,5393388,5486230,35751.33,304
69250,Sch?au,Baden-W¨¹rttemberg,BW,Rhein-Neckar-Kreis,49.4356,8.8092,10879618,5393388,5486230,35751.33,304
69251,Gaiberg,Baden-W¨¹rttemberg,BW,Rhein-Neckar-Kreis,49.3664,8.7497,10879618,5393388,5486230,35751.33,304
69253,Heiligkreuzsteinach,Baden-W¨¹rttemberg,BW,Rhein-Neckar-Kreis,49.4833,8.795,10879618,5393388,5486230,35751.33,304
69254,Malsch,Baden-W¨¹rttemberg,BW,Rhein-Neckar-Kreis,49.2472,8.6828,10879618,5393388,5486230,35751.33,304
69256,Mauer,Baden-W¨¹rttemberg,BW,Rhein-Neckar-Kreis,49.3408,8.8003,10879618,5393388,5486230,35751.33,304
69257,Wiesenbach,Baden-W¨¹rttemberg,BW,Rhein-Neckar-Kreis,49.3614,8.8036,10879618,5393388,5486230,35751.33,304
69259,Wilhelmsfeld,Baden-W¨¹rttemberg,BW,Rhein-Neckar-Kreis,49.4706,8.7536,10879618,5393388,5486230,35751.33,304
69412,Eberbach,Baden-W¨¹rttemberg,BW,Rhein-Neckar-Kreis,49.4708,8.9934,10879618,5393388,5486230,35751.33,304
69427,Mudau,Baden-W¨¹rttemberg,BW,Neckar-Odenwald-Kreis,49.5344,9.2044,10879618,5393388,5486230,35751.33,304
69429,Waldbrunn,Baden-W¨¹rttemberg,BW,Neckar-Odenwald-Kreis,49.4592,9.0919,10879618,5393388,5486230,35751.33,304
69436,Sch?brunn,Baden-W¨¹rttemberg,BW,Rhein-Neckar-Kreis,49.4117,8.9256,10879618,5393388,5486230,35751.33,304
69437,Neckargerach,Baden-W¨¹rttemberg,BW,Neckar-Odenwald-Kreis,49.4,9.0667,10879618,5393388,5486230,35751.33,304
69439,Zwingenberg,Baden-W¨¹rttemberg,BW,Neckar-Odenwald-Kreis,49.4192,9.0406,10879618,5393388,5486230,35751.33,304
69469,Weinheim,Baden-W¨¹rttemberg,BW,Rhein-Neckar-Kreis,49.5481,8.6559,10879618,5393388,5486230,35751.33,304
69493,Hirschberg an der Bergstra?,Baden-W¨¹rttemberg,BW,Rhein-Neckar-Kreis,49.5062,8.6657,10879618,5393388,5486230,35751.33,304
69502,Hemsbach,Baden-W¨¹rttemberg,BW,Rhein-Neckar-Kreis,49.5917,8.6464,10879618,5393388,5486230,35751.33,304
69514,Laudenbach,Baden-W¨¹rttemberg,BW,Rhein-Neckar-Kreis,49.6133,8.6539,10879618,5393388,5486230,35751.33,304
71292,Friolzheim,Baden-W¨¹rttemberg,BW,Enzkreis,48.8364,8.8383,10879618,5393388,5486230,35751.33,304
71296,Heimsheim,Baden-W¨¹rttemberg,BW,Enzkreis,48.8055,8.8604,10879618,5393388,5486230,35751.33,304
71297,M?sheim,Baden-W¨¹rttemberg,BW,Enzkreis,48.8667,8.8667,10879618,5393388,5486230,35751.33,304
71299,Wimsheim,Baden-W¨¹rttemberg,BW,Enzkreis,48.85,8.8333,10879618,5393388,5486230,35751.33,304
72160,Horb am Neckar,Baden-W¨¹rttemberg,BW,Freudenstadt,48.4889,8.6734,10879618,5393388,5486230,35751.33,304
72178,Waldachtal,Baden-W¨¹rttemberg,BW,Freudenstadt,48.5,8.5667,10879618,5393388,5486230,35751.33,304
72184,Eutingen im G?,Baden-W¨¹rttemberg,BW,Freudenstadt,48.4833,8.75,10879618,5393388,5486230,35751.33,304
72186,Empfingen,Baden-W¨¹rttemberg,BW,Freudenstadt,48.3859,8.7219,10879618,5393388,5486230,35751.33,304
72202,Nagold,Baden-W¨¹rttemberg,BW,Calw,48.5417,8.72,10879618,5393388,5486230,35751.33,304
72213,Altensteig,Baden-W¨¹rttemberg,BW,Calw,48.5833,8.6,10879618,5393388,5486230,35751.33,304
72218,Wildberg,Baden-W¨¹rttemberg,BW,Calw,48.6238,8.7609,10879618,5393388,5486230,35751.33,304
72221,Haiterbach,Baden-W¨¹rttemberg,BW,Calw,48.5333,8.65,10879618,5393388,5486230,35751.33,304
72224,Ebhausen,Baden-W¨¹rttemberg,BW,Calw,48.5833,8.6833,10879618,5393388,5486230,35751.33,304
72226,Simmersfeld,Baden-W¨¹rttemberg,BW,Calw,48.6167,8.5167,10879618,5393388,5486230,35751.33,304
72227,Egenhausen,Baden-W¨¹rttemberg,BW,Calw,48.5667,8.6167,10879618,5393388,5486230,35751.33,304
72229,Rohrdorf,Baden-W¨¹rttemberg,BW,Calw,48.5667,8.7,10879618,5393388,5486230,35751.33,304
72250,Freudenstadt,Baden-W¨¹rttemberg,BW,Freudenstadt,48.4648,8.4182,10879618,5393388,5486230,35751.33,304
72270,Baiersbronn,Baden-W¨¹rttemberg,BW,Freudenstadt,48.5155,8.3495,10879618,5393388,5486230,35751.33,304
72275,Alpirsbach,Baden-W¨¹rttemberg,BW,Freudenstadt,48.3436,8.3998,10879618,5393388,5486230,35751.33,304
72280,Dornstetten,Baden-W¨¹rttemberg,BW,Freudenstadt,48.45,8.5,10879618,5393388,5486230,35751.33,304
72285,Pfalzgrafenweiler,Baden-W¨¹rttemberg,BW,Freudenstadt,48.5167,8.5667,10879618,5393388,5486230,35751.33,304
72290,Lo?urg,Baden-W¨¹rttemberg,BW,Freudenstadt,48.4,8.45,10879618,5393388,5486230,35751.33,304
72291,Betzweiler-W?de,Baden-W¨¹rttemberg,BW,Freudenstadt,48.3667,8.4833,10879618,5393388,5486230,35751.33,304
72293,Glatten,Baden-W¨¹rttemberg,BW,Freudenstadt,48.4333,8.5167,10879618,5393388,5486230,35751.33,304
72294,Gr?bach,Baden-W¨¹rttemberg,BW,Freudenstadt,48.5833,8.55,10879618,5393388,5486230,35751.33,304
72296,Schopfloch,Baden-W¨¹rttemberg,BW,Freudenstadt,48.45,8.55,10879618,5393388,5486230,35751.33,304
72297,Seewald,Baden-W¨¹rttemberg,BW,Freudenstadt,48.5919,8.4178,10879618,5393388,5486230,35751.33,304
72299,W?nersberg,Baden-W¨¹rttemberg,BW,Freudenstadt,48.5667,8.5667,10879618,5393388,5486230,35751.33,304
74706,Osterburken,Baden-W¨¹rttemberg,BW,Neckar-Odenwald-Kreis,49.428,9.4265,10879618,5393388,5486230,35751.33,304
74722,Buchen (Odenwald),Baden-W¨¹rttemberg,BW,Neckar-Odenwald-Kreis,49.52,9.324,10879618,5393388,5486230,35751.33,304
74731,Walld?n,Baden-W¨¹rttemberg,BW,Neckar-Odenwald-Kreis,49.578,9.3699,10879618,5393388,5486230,35751.33,304
74736,Hardheim,Baden-W¨¹rttemberg,BW,Neckar-Odenwald-Kreis,49.609,9.4766,10879618,5393388,5486230,35751.33,304
74740,Adelsheim,Baden-W¨¹rttemberg,BW,Neckar-Odenwald-Kreis,49.4044,9.3902,10879618,5393388,5486230,35751.33,304
74743,Seckach,Baden-W¨¹rttemberg,BW,Neckar-Odenwald-Kreis,49.4422,9.3342,10879618,5393388,5486230,35751.33,304
74746,H?fingen,Baden-W¨¹rttemberg,BW,Neckar-Odenwald-Kreis,49.6025,9.4286,10879618,5393388,5486230,35751.33,304
74747,Ravenstein,Baden-W¨¹rttemberg,BW,Neckar-Odenwald-Kreis,49.3939,9.5325,10879618,5393388,5486230,35751.33,304
74749,Rosenberg,Baden-W¨¹rttemberg,BW,Neckar-Odenwald-Kreis,49.4558,9.4731,10879618,5393388,5486230,35751.33,304
74821,Mosbach,Baden-W¨¹rttemberg,BW,Neckar-Odenwald-Kreis,49.3537,9.1343,10879618,5393388,5486230,35751.33,304
74834,Elztal,Baden-W¨¹rttemberg,BW,Neckar-Odenwald-Kreis,49.3897,9.2106,10879618,5393388,5486230,35751.33,304
74838,Limbach,Baden-W¨¹rttemberg,BW,Neckar-Odenwald-Kreis,49.4619,9.2111,10879618,5393388,5486230,35751.33,304
74842,Billigheim,Baden-W¨¹rttemberg,BW,Neckar-Odenwald-Kreis,49.3486,9.2539,10879618,5393388,5486230,35751.33,304
74847,Obrigheim,Baden-W¨¹rttemberg,BW,Neckar-Odenwald-Kreis,49.3519,9.0908,10879618,5393388,5486230,35751.33,304
74850,Schefflenz,Baden-W¨¹rttemberg,BW,Neckar-Odenwald-Kreis,49.3956,9.2728,10879618,5393388,5486230,35751.33,304
74855,Ha?ersheim,Baden-W¨¹rttemberg,BW,Neckar-Odenwald-Kreis,49.3003,9.1418,10879618,5393388,5486230,35751.33,304
74858,Aglasterhausen,Baden-W¨¹rttemberg,BW,Neckar-Odenwald-Kreis,49.3569,8.9869,10879618,5393388,5486230,35751.33,304
74862,Binau,Baden-W¨¹rttemberg,BW,Neckar-Odenwald-Kreis,49.3683,9.0581,10879618,5393388,5486230,35751.33,304
74864,Fahrenbach,Baden-W¨¹rttemberg,BW,Neckar-Odenwald-Kreis,49.4314,9.1506,10879618,5393388,5486230,35751.33,304
74865,Neckarzimmern,Baden-W¨¹rttemberg,BW,Neckar-Odenwald-Kreis,49.3192,9.1328,10879618,5393388,5486230,35751.33,304
74867,Neunkirchen,Baden-W¨¹rttemberg,BW,Neckar-Odenwald-Kreis,49.3869,9.0106,10879618,5393388,5486230,35751.33,304
74869,Schwarzach,Baden-W¨¹rttemberg,BW,Neckar-Odenwald-Kreis,49.3767,8.9889,10879618,5393388,5486230,35751.33,304
74889,Sinsheim,Baden-W¨¹rttemberg,BW,Rhein-Neckar-Kreis,49.2455,8.8823,10879618,5393388,5486230,35751.33,304
74909,Meckesheim,Baden-W¨¹rttemberg,BW,Rhein-Neckar-Kreis,49.3217,8.8194,10879618,5393388,5486230,35751.33,304
74915,Waibstadt,Baden-W¨¹rttemberg,BW,Rhein-Neckar-Kreis,49.2996,8.9139,10879618,5393388,5486230,35751.33,304
74918,Angelbachtal,Baden-W¨¹rttemberg,BW,Rhein-Neckar-Kreis,49.2331,8.7705,10879618,5393388,5486230,35751.33,304
74921,Helmstadt-Bargen,Baden-W¨¹rttemberg,BW,Rhein-Neckar-Kreis,49.31,9,10879618,5393388,5486230,35751.33,304
74924,Neckarbischofsheim,Baden-W¨¹rttemberg,BW,Rhein-Neckar-Kreis,49.2953,8.9633,10879618,5393388,5486230,35751.33,304
74925,Epfenbach,Baden-W¨¹rttemberg,BW,Rhein-Neckar-Kreis,49.3392,8.9078,10879618,5393388,5486230,35751.33,304
74927,Eschelbronn,Baden-W¨¹rttemberg,BW,Rhein-Neckar-Kreis,49.3194,8.8653,10879618,5393388,5486230,35751.33,304
74928,H?fenhardt,Baden-W¨¹rttemberg,BW,Neckar-Odenwald-Kreis,49.2919,9.0817,10879618,5393388,5486230,35751.33,304
74931,Lobbach,Baden-W¨¹rttemberg,BW,Rhein-Neckar-Kreis,49.3664,8.8917,10879618,5393388,5486230,35751.33,304
74933,Neidenstein,Baden-W¨¹rttemberg,BW,Rhein-Neckar-Kreis,49.3167,8.8847,10879618,5393388,5486230,35751.33,304
74934,Reichartshausen,Baden-W¨¹rttemberg,BW,Rhein-Neckar-Kreis,49.355,8.9453,10879618,5393388,5486230,35751.33,304
74937,Spechbach,Baden-W¨¹rttemberg,BW,Rhein-Neckar-Kreis,49.3464,8.8833,10879618,5393388,5486230,35751.33,304
74939,Zuzenhausen,Baden-W¨¹rttemberg,BW,Rhein-Neckar-Kreis,49.2959,8.8236,10879618,5393388,5486230,35751.33,304
75015,Bretten,Baden-W¨¹rttemberg,BW,Karlsruhe,49.0342,8.716,10879618,5393388,5486230,35751.33,304
75038,Oberderdingen,Baden-W¨¹rttemberg,BW,Karlsruhe,49.0656,8.8031,10879618,5393388,5486230,35751.33,304
75045,Walzbachtal,Baden-W¨¹rttemberg,BW,Karlsruhe,49.0257,8.5861,10879618,5393388,5486230,35751.33,304
75053,Gondelsheim,Baden-W¨¹rttemberg,BW,Karlsruhe,49.0592,8.6583,10879618,5393388,5486230,35751.33,304
75056,Sulzfeld,Baden-W¨¹rttemberg,BW,Karlsruhe,49.1044,8.8597,10879618,5393388,5486230,35751.33,304
75057,K?nbach,Baden-W¨¹rttemberg,BW,Karlsruhe,49.0775,8.8456,10879618,5393388,5486230,35751.33,304
75059,Zaisenhausen,Baden-W¨¹rttemberg,BW,Karlsruhe,49.1067,8.8128,10879618,5393388,5486230,35751.33,304
75172,Pforzheim,Baden-W¨¹rttemberg,BW,Pforzheim,48.8919,8.6986,10879618,5393388,5486230,35751.33,304
75173,Pforzheim,Baden-W¨¹rttemberg,BW,Pforzheim,48.8833,8.7,10879618,5393388,5486230,35751.33,304
75175,Pforzheim,Baden-W¨¹rttemberg,BW,Pforzheim,48.8915,8.7156,10879618,5393388,5486230,35751.33,304
75177,Pforzheim,Baden-W¨¹rttemberg,BW,Pforzheim,48.8833,8.7,10879618,5393388,5486230,35751.33,304
75179,Pforzheim,Baden-W¨¹rttemberg,BW,Pforzheim,48.9006,8.6697,10879618,5393388,5486230,35751.33,304
75180,Pforzheim,Baden-W¨¹rttemberg,BW,Pforzheim,48.8696,8.6704,10879618,5393388,5486230,35751.33,304
75181,Pforzheim,Baden-W¨¹rttemberg,BW,Pforzheim,48.8851,8.7307,10879618,5393388,5486230,35751.33,304
75196,Remchingen,Baden-W¨¹rttemberg,BW,Enzkreis,48.95,8.5833,10879618,5393388,5486230,35751.33,304
75203,K?igsbach-Stein,Baden-W¨¹rttemberg,BW,Enzkreis,48.9667,8.6167,10879618,5393388,5486230,35751.33,304
75210,Keltern,Baden-W¨¹rttemberg,BW,Enzkreis,48.9,8.5833,10879618,5393388,5486230,35751.33,304
75217,Birkenfeld,Baden-W¨¹rttemberg,BW,Enzkreis,48.8541,8.6081,10879618,5393388,5486230,35751.33,304
75223,Niefern-?chelbronn,Baden-W¨¹rttemberg,BW,Enzkreis,48.9167,8.7833,10879618,5393388,5486230,35751.33,304
75228,Ispringen,Baden-W¨¹rttemberg,BW,Enzkreis,48.9167,8.6667,10879618,5393388,5486230,35751.33,304
